iata_code|icao_code|airport_name_ru|airport_name_en|city_ru|city_en|gmt_offset|country_code|latitude|longitude|website
AAA|NTGA|Анаа|Anaa|Анаа|Anaa|+10.0|PF|-17.355000|-145.508333|
AAB|YARY||Arrabury||Arrabury|-10.0|AU|-26.690556|141.047500|
AAC|HEAR||Al Arish International Airport|Аль-Ариш|Al Arish|+2.0|EG|31.073333|33.835833|
AAD|TVSV||Ad-Dabbah||Ad-Dabbah|+3.0|SD|17.592777777778|33.959166666667|
AAE|DABB||Les Salines||Annaba|+1.0|DZ|36.822222|7.809444|
AAF|KAAF||Municipal||Apalachicola|-5.0|US|29.727607|-85.027442|
AAG|SSYA||Arapoti||Arapoti|+0.0|BR|-24.103875|-49.789078|
AAH|EDKA||Aachen/Merzbruck|Аахен|Aachen|+1.0|DE|50.823056|6.186111|http://www.flugplatz-aachen.de/
AAI|SWRA||Arraias||Arraias|+3.0|BR|-13.025|-46.884|
AAJ|SMCA||Cayana Airstrip|Аварадам|Awaradam|-3.0|SR|3.898611|-55.577778|
AAK|NGUK|Аранука|Aranuka|Аранука|Aranuka|-12.0|KI|0.185278|173.636667|
AAL|EKYT|Аальборг|Aalborg|Аальбург|Aalborg|-1.0|DK|57.092789|9.849164|http://www.aal.dk/
AAM|FAMD|Мала-Мала|Mala Mala|Мала-Мала|Mala Mala|+2.0|ZA|-24.818111|31.544584|
AAN|OMAL|Эль-Аин|Al Ain|Аль-Айн|Al Ain|+4.0|AE|24.261667|55.609167|
AAO|SVAN|Анако|Anaco|Анако|Anaco|-4.0|VE|9.430225|-64.470725|
AAP|BGAG||Andrau Airpark||Houston, TX|-6.0|US|72.886944|-55.596111|
AAQ|URKA|Витязево|Vityazevo|Анапа|Anapa|+3.0|RU|45.002097|37.347272|http://www.anapa-airport.ru
AAR|EKAH||Aarhus Airport|Аарус|Aarhus|+1.0|DK|56.300017|10.619008|http://www.aar.dk
AAS|||Apalapsili||Apalapsili|+9.0|ID|-3.883|139.283|
AAT|ZWAT|Алтай|Altay|Алтай|Altay|-8.0|CN|47.749|88.089|
AAU|NSAU|Асау|Asau|Асау|Asau|-11.0|WS|-13.505778|-172.627972|
AAV|RPMA||Allah Valley||Surallah|+8.0|PH|6.366817|124.751294|
AAW|OPAB||Abbottabad||Abbottabad|+5.0|PK|34.150|73.217|
AAX|SBAX||Araxa||Araxa|+3.0|BR|-19.563247|-46.960358|
AAY|OYGD|Аль-Гайда|Al Ghaydah|Аль-Гайда|Al Ghaydah|-3.0|YE|16.191666|52.175000|
AAZ|MGQZ||Ambriz||Ambriz|-1.0|AO|14.865550|-91.501981|
ABA|UNAA|Абакан|Abakan|Абакан|Abakan|+7.0|RU|53.740000|91.385000|http://www.abakan-airport.ru
ABB|EGUD||RAF Station|Абингдон|Abingdon|+0.0|GB|51.690556|-1.316667|
ABC|LEAB||Los Llanos|Албасет|Albacete|+1.0|ES|38.948528|-1.863517|
ABD|OIAA|Абадан|Abadan|Абадан|Abadan|-3.5|IR|30.371111|48.228333|
ABF|NGAB|Абайянг|Abaiang|Абайянг|Abaiang|+12.0|KI|1.798611|173.040556|
ABG|YABI|Абингдон|Abingdon|Абингдон|Abingdon|-10.0|AU|-17.617|143.167|
ABH|YAPH|Альфа|Alpha||Alpha|-10.0|AU|-23.646111|146.583611|
ABI|KABI||Municipal||Abilene|-6.0|US|32.411306|-99.681889|
ABJ|DIAP||Felix Houphouet Boigny|Абиджан|Abidjan|+0.0|CI|5.261386|-3.926294|
ABK|HAKD|Кабри-Дар|Kabri Dar|Кабри-Дар|Kabri Dar|+3.0|ET|6.734|44.253|
ABL|PAFM|Амблер|Ambler||Ambler|-9.0|US|67.106314|-157.857472|
ABM|YBAM||Bamaga Injinoo||Bamaga, Queensland|-10.0|AU|-10.950833|142.459444|
ABN|SMBN|Альбина|Albina|Альбина|Albina|+3.0|SR|5.513|-54.050|
ABO|DIAO||Aboisso||Aboisso|+0.0|CI|5.433|-3.267|
ABP||Аткамба|Atkamba|Аткамба|Atkamba|-10.0|PG|-6.050|141.083|
ABQ|KABQ||Albuquerque International|Альбукерк|Albuquerque|-7.0|US|35.040194|-106.609194|http://www.cabq.gov/airport/
ABR|KABR||Municipal||Aberdeen|-5.0|US|45.449056|-98.421833|
ABS|HEBL|Абу-Симбель|Abu Simbel|Абу-Симбель|Abu Simbel|+2.0|EG|22.375953|31.611722|
ABT|OEBA||Al-Aqiq||Al-Baha|-3.0|SA|20.296139|41.634277|
ABU|WATA||Atambua||Atambua|+9.0|ID|-9.074444|124.904444|
ABV|DNAA||Nnamdi Azikiwe International Airport|Абуджа|Abuja|+1.0|NG|9.006792|7.263172|
ABW||Абау|Abau|Абау|Abau|-10.0|PG|-10.200|148.733|
ABX|YMAY|Элбери|Albury|Элбери|Albury|+11.0|AU|-36.067778|146.958056|
ABY|KABY||Dougherty County|Олбани|Albany|-8.0|US|31.535515|-84.194473|
ABZ|EGPD||Dyce||Aberdeen|+0.0|GB|57.201944|-2.197778|http://www.aberdeenairport.com/
ACB|KACB||Antrim County||Bellaire|-5.0|US|44.988576|-85.198355|
ACC|DGAA|Котока|Kotoka||Accra|+0.0|GH|5.605186|-0.166786|http://www.gcaa.com.gh
ACD|SKAD|Аканди|Acandi|Аканди|Acandi|-5.0|CO|8.500|-73.633|
ACE|GCRR|Ланцароте|Lanzarote|Арресиф|Arrecife|+0.0|ES|28.945464|-13.605225|
ACH|LSZR||Altenrhein||Altenrhein|+1.0|CH|47.485033|9.560775|http://www.airport-stgallen.com/
ACI|EGJA||The Blaye|Элдерни|Alderney|+0.0|GB|49.706111|-2.214722|
ACJ|KACJ|Анурадхапура|Anuradhapura|Анурадхапура|Anuradhapura|+5.5|LK|32.110799|-84.188848|
ACK|KACK||Nantucket Memorial||Nantucket|-5.0|US|41.253111|-70.060306|
ACL|||Aguaclara||Aguaclara|+5.0|CO|4.749|-72.994|
ACM||Арика|Arica|Арика|Arica|+5.0|CO|-2.133|-71.783|
ACN|MMCC||International|Сиудад-Акуна|Ciudad Acuna|-6.0|MX|29.333917|-101.100892|
ACO|LSZD|Аскона|Ascona|Аскона|Ascona|+1.0|CH|46.157778|8.781944|
ACP|OITM||Sahand||Sahand|+3.5|IR|37.348017|46.127903|
ACR|SKAC|Араракуара|Araracuara|Араракуара|Araracuara|+5.0|CO|-0.601111|-72.397778|
ACS|UNKS|Ачинск|Achinsk|Ачинск|Achinsk|-2.0|RU|56.268333|90.570833|
ACT|KACT||Municipal|Вако|Waco|+6.0|US|31.611700|-97.230284|
ACU||Ахутупо|Achutupo|Ахутупо|Achutupo|+5.0|PA|9.183|-78.017|
ACV|KACV||Arcata||Arcata|-8.0|US|40.978111|-124.108611|
ACX|ZUYI||Xingyi||Xingyi|+0.0|CN|25.155|104.971|
ACY|KACY||Atlantic City Intl|Атлантик Сити|Atlantic City|-5.0|US|39.457583|-74.577167|
ACZ|OIZB||Zabol A/P|Забол|Zabol|+3.5|IR|31.098333|61.543889|
ADA|LTAF|Адана|Adana|Адана|Adana|+2.0|TR|36.982166|35.280388|
ADB|LTBJ||Adnan Menderes|Измир|Izmir|-2.0|TR|38.292392|27.156953|
ADC|KADC||Andakombe||Andakombe|+0.0|PG|46.450270|-95.210955|
ADD|HAAB||Bole International|Аддис Абеба|Addis Ababa|+3.0|ET|8.977889|38.799319|
ADE|OYAA|Международный|International|Аден|Aden|+3.0|YE|12.829542|45.028792|
ADF|LTCP||Adiyaman||Adiyaman|+0.0|TR|37.731369|38.468936|
ADG|KADG||Lenawee County||Adrian|-5.0|US|41.867674|-84.077306|
ADH|UEEA|Алдан|Aldan|Алдан|Aldan|-2.0|RU|58.602778|125.408889|
ADI|FYAR||Arandis||Arandis|+2.0|NA|-22.462223|14.980000|
ADJ|OJAM||Marka International Airport|Амман|Amman|+2.0|JO|31.972703|35.991569|
ADK|PADK||Adak Island NS||Adak Island|-10.0|US|51.877964|-176.646031|
ADL|YPAD||Adelaide International Airport|Аделаида|Adelaide|+10.5|AU|-34.945000|138.530556|http://www.aal.com.au
ADM|KADM||Ardmore Municipal Arpt|Ардмор|Ardmore|-6.0|US|34.304250|-97.020583|
ADN|SKAN|Андес|Andes|Андес|Andes|-5.0|CO|5.656|-75.879|
ADO|YAMK||Andamooka||Andamooka|-9.5|AU|-30.437778|137.137222|http://www.andamookaopal.com.au
ADP|VCCA||Ampara||Ampara|+5.5|LK|8.301486|80.427900|
ADQ|PADQ||Kodiak Airport||Kodiak|-9.0|US|57.749968|-152.493855|
ADR|KPHH||Andrews||Andrews|-5.0|US|33.451700|-79.526177|
ADS|KADS||Addison Airport|Даллас|Dallas|-6.0|US|32.968559|-96.836448|
ADT|KADH|Ада|Ada|Ада|Ada|+0.0|US|34.804262|-96.671200|
ADU|OITL||Ardabil||Ardabil|+3.5|IR|38.325678|48.424356|
ADV|EGWA|Эндовер|Andover|Эндовер|Andover|+0.0|GB|51.207|-1.528|
ADW|KADW||Andrews AFB||Camp Springs|-5.0|US|38.810833|-76.867000|
ADX|EGQL||Leuchars||St Andrews|+0.0|GB|56.372889|-2.868444|
ADY|FAAL|Оллдейз|Alldays|Оллдейз|Alldays|-2.0|ZA|-22.679017|29.055517|
ADZ|SKSP|Остров Сан Андрес|San Andres Island|Остров Сан Андрес|San Andres Island|+5.0|CO|12.583683|-81.710919|
AEA|NGTB|Абемама-Атолл|Abemama Atoll|Абемама-Атолл|Abemama Atoll|-12.0|KI|0.490833|173.828611|
AED|KTDO||Aleneva||Aleneva|-9.0|US|58.03333333|-152.9|
AEG|WIME|Эк-Годан|Aek Godang|Эк-Годан|Aek Godang|+7.0|ID|1.400103|99.430453|
AEH|FTTC||Abecher||Abecher|+1.0|TD|13.847000|20.844333|
AEI|OPKC|Альгесирас|Algeciras|Альгесирас|Algeciras|+0.0|ES|0|0|
AEK||Асеки|Aseki|Асеки|Aseki|-10.0|PG|-7.350|146.183|
AEL|KAEL|Альберт Ли|Albert Lea|Альберт Ли|Albert Lea|-6.0|US|43.681528|-93.367250|
AEO|GQNA||Aioun El Atrouss||Aioun El Atrouss|+0.0|MR|16.711293|-9.637883|
AEP|SABE||Arpt. Jorge Newbery|Буэнос-Айрес|Buenos Aires|-3.0|AR|-34.559175|-58.415606|
AER|URSS|Адлер - Сочи|Adler - Sochi|Адлер|Adler|+3.0|RU|43.449928|39.956589|http://airport.sochi.ru
AES|ENAL|Вигра|Vigra||Aalesund|+1.0|NO|62.560372|6.110164|http://www.alesund.airport.no/
AET|PFAL||Allakaket||Allakaket|-9.0|US|66.551833|-152.622167|
AEU|OIBA||Abu Musa||Abu Musa|+0.0|IR|25.875742|55.032994|
AEX|KAEX|Александрия международный|Alexandria International||Alexandria, LA|-6.0|US|31.327372|-92.548556|
AEY|BIAR|Акурейри|Akureyri|Акурейри|Akureyri|+0.0|IS|65.658610|-18.072222|
AFA|SAMR|Сан-Рафаэль|San Rafael|Сан-Рафаэль|San Rafael|+4.0|AR|-34.588314|-68.403854|
AFD|FAPA|Порт Альфред|Port Alfred|Порт Альфред|Port Alfred|-2.0|ZA|-33.554167|26.879722|
AFF|KAFF||USAF Academy Airstrip|Колорадо Спрингз|Colorado Springs|-7.0|US|38.969715|-104.812831|
AFI|SKAM|Амалфи|Amalfi|Амалфи|Amalfi|+5.0|CO|6.916667|-75.066667|
AFK|KAFK||Kondavattavan Tank||Ampara|+5.5|LK|40.605444|-95.867750|
AFL|SBAT|Алта-Флореста|Alta Floresta|Алта-Флореста|Alta Floresta|-3.0|BR|-9.866092|-56.106206|
AFN|KAFN||Municipal||Jaffrey|+5.0|US|42.805134|-72.003022|
AFO|KAFO||Municipal|Афтон|Afton|-7.0|US|42.708778|-110.942167|
AFR||Афоре|Afore|Афоре|Afore|-10.0|PG|-9.133|148.383|
AFS|UTSN|Зарафшан|Zarafshan|Зарафшан|Zarafshan|+5.0|UZ|41.613611|64.232777|
AFT|AGAF||Afutara Aerodrome|Афутара|Afutara|+0.0|SB|-9.191111|160.949167|
AFW|KAFW||Fort Worth Alliance||Fort Worth, TX|-6.0|US|32.987639|-97.318806|
AFY|LTAH|Афион|Afyon|Афион|Afyon|+2.0|TR|38.726425|30.601114|
AFZ|OIMS||Sabzevar||Sabzevar|+3.5|IR|36.168083|57.595183|
AGA|GMAD|Агадир Альмассира|Agadir Almassira|Агадир|Agadir|+0.0|MA|30.324997|-9.413067|
AGB|EDMA||Augsburg - Muehlhausen|Мюнхен|Munich|+1.0|DE|48.425158|10.931764|http://www.augsburg-airport.de/
AGC|KAGC||Allegheny County|Питтсборо|Pittsburgh|+5.0|US|40.354401|-79.930169|http://www.pitairport.com/
AGD|WASG|Ангги|Anggi|Ангги|Anggi|+9.0|ID|-1.383|133.867|
AGE|EDWG||Flugplatz|Вангерооге|Wangerooge|-1.0|DE|53.788333|7.920556|
AGF|LFBA||La Garenne|Аген|Agen|+1.0|FR|44.174714|0.590619|
AGG||Ангорам|Angoram|Ангорам|Angoram|+10.0|PG|-4.050|144.067|
AGH|ESTA||Angelholm||Angelholm/Helsingborg|+1.0|SE|56.296072|12.847139|http://www.lfv.se/templates/LFV_AirportStartPage____4777.aspx
AGI|SMWA|Вагенинген|Wageningen|Вагенинген|Wageningen|+3.0|SR|5.833|-56.650|
AGJ|RORA|Агуни|Aguni|Агуни|Aguni|+9.0|JP|26.592499|127.240833|
AGK||Кагуа|Kagua|Кагуа|Kagua|-10.0|PG|-6.383|143.850|
AGL||Ванигела|Wanigela|Ванигела|Wanigela|-10.0|PG|-9.333|149.150|
AGM|BGAM||Tasiilaq||Tasiilaq|-3.0|GL|65.612222|-37.618333|
AGN|PAGN|Ангун|Angoon||Angoon|-9.0|US|57.503555|-134.585094|
AGO|KAGO||Municipal||Magnolia|-6.0|US|33.227468|-93.216992|
AGP|LEMG||Pablo Ruiz Picasso|Малага|Malaga|+1.0|ES|36.674900|-4.499106|http://www.aena.es/csee/Satellite?cid=1048858947193&pagename=Estandar%2FPage%2FAeropuerto&SMO=-1&SiteName=AGP&c=Page&MO=0&lang=EN_GB
AGQ|LGAG|Агринио|Agrinion|Агринио|Agrinion|+2.0|GR|38.602022|21.351208|
AGR|VIAG||Kheria|Агра|Agra|+5.5|IN|27.155831|77.960892|
AGS|KAGS||Bush Field||Augusta|-5.0|US|33.369943|-81.964500|
AGT|SGES||Alejo Garcia|Кудад-дель-Эсте|Ciudad Del Este|-3.0|PY|-25.455500|-54.843592|
AGU|MMAS||Aguascalients|Агуаскалиентес|Aguascalientes|-6.0|MX|21.705558|-102.317858|
AGV|SVAC|Акарикуа|Acarigua|Акарикуа|Acarigua|-4.0|VE|9.553422|-69.237536|
AGW|||Agnew||Agnew|+10.0|AU|-12.145556|142.149167|
AGX|VOAT|Агатти-Айленд|Agatti Island|Агатти-Айленд|Agatti Island|+5.5|IN|10.823656|72.176042|
AGY|||Argyle Downs||Argyle Downs|+9.0|AU|-16.333|128.767|
AGZ|FAAG|Аггенейз|Aggeneys|Аггенейз|Aggeneys|+2.0|ZA|-29.281767|18.813869|
AHA|RORG||Naha Air Force Base|Окинава|Okinawa|+9.0|JP|26.2|127.65|
AHB|OEAB|Абха|Abha|Абха|Abha|+3.0|SA|18.240367|42.656625|
AHC|KAHC||Amedee AAF||Herlong|+1.0|NO|40.265918|-120.150613|
AHD|KAHD||Downtown|Ардмор|Ardmore|-6.0|US|34.146989|-97.122652|
AHE|NTHE||Ahe Airport||Ahe|+0.0|PF|-14.427778|-146.255000|
AHF|||Municipal||Arapahoe|-6.0|GT|40.339451|-99.906513|
AHH|KAHH||Municipal||Amery|-6.0|US|45.281148|-92.375392|
AHI|WAPA|Амахаи|Amahai|Амахаи|Amahai|+8.0|ID|-3.348|128.926|
AHL|SYAH|Аисхалтон|Aishalton|Аисхалтон|Aishalton|+3.0|GY|2.473604|-59.321110|
AHN|KAHN|Афины|Athens|Афины|Athens|+2.0|GR|33.948595|-83.326347|
AHO|LIEA||Fertilia||Alghero|+1.0|IT|40.632133|8.290772|
AHS||Ахуас|Ahuas|Ахуас|Ahuas|+6.0|HN|15.472222|-84.352222|
AHT|PHKO|Ам-Тиман|Amchitka|Ам-Тиман|Amchitka|+10.0|US|51.5|179|
AHU|GMTA||Charif Al Idrissi||Al Hoceima|+0.0|MA|35.177103|-3.839525|
AHY||Амбатолахи|Ambatolahy|Амбатолахи|Ambatolahy|-3.0|MG|-20.000|45.533|
AHZ|LFHU||Alpe D Huez||Alpe D Huez|+1.0|FR|45.088333|6.084722|
AIA|KAIA|Альянс|Alliance||Alliance|-7.0|US|42.053222|-102.803778|
AIB|KGRK|Анита Бэй|Anita Bay||Anita Bay|-9.0|US|56.233333333333|-132.38333333333|
AIC||Айрок|Airok||Airok, Ailinglaplap|+12.0|MH|7.100|171.233|
AID|KAID||Municipal||Anderson|-5.0|US|40.108611|-85.613000|
AIE||Айоме|Aiome|Айоме|Aiome|-10.0|PG|-5.133|144.717|
AIF|SBAS||Assis||Assis|+3.0|BR|-22.638564|-50.455914|
AIG|FEFY|Ялинга|Yalinga|Ялинга|Yalinga|+1.0|CF|6.520|23.260|
AIH|OPKC||Aiambak||Aiambak|+0.0|PG|-7.35|141.26666666667|
AII|HDAS||Alisabieh||Alisabieh|+3.0|DJ|11.133|42.717|
AIK|KAIK||Municipal||Aiken|-5.0|US|33.649376|-81.685036|
AIL||Айлиганди|Ailigandi|Айлиганди|Ailigandi|+5.0|PA|9.217|-78.017|
AIM|||Ailuk Island||Ailuk Island|-12.0|MH|10.200|169.983|
AIN|PAWI||Wainwright||Wainwright|+9.0|US|70.638000|-159.994750|
AIO|KAIO||Municipal||Atlantic|-6.0|US|41.403833|-95.048750|
AIP|||Ailinglapalap Island||Ailinglapalap Island|-12.0|MH|7.267|168.817|
AIR|||Aripuana||Aripuana|+0.0|BR|-10.186389|-59.457500|
AIS|NGTR|Ароре-Айленд|Arorae Island|Ароре-Айленд|Arorae Island|+12.0|KI|-2.616111|176.802500|
AIT|NCAI|Аитутаки|Aitutaki|Аитутаки|Aitutaki|+10.0|CK|-18.830922|-159.764233|
AIU|NCAT||Atiu Island||Atiu Island|+10.0|CK|-19.967778|-158.119167|
AIV|KAIV||George Downer||Aliceville|-6.0|US|33.106465|-88.197792|
AIW|OPKC||Ai-ais||Ai-ais|+1.0|NA|-27.983333333333|17.583055555556|
AIY|KAIY||Bader Field|Атлантик Сити|Atlantic City|-5.0|US|39.366666666667|-74.45|
AIZ|KAIZ||Lee C Fine Memorial||Kaiser/Lake Ozark|+6.0|US|38.096035|-92.549488|
AJA|LFKJ|Кампо Дель Оро|Campo Dell Oro|Аяччио|Ajaccio|+1.0|FR|41.923889|8.802500|http://www.ajaccio.aeroport.fr
AJF|OESK|Джуф|Jouf||Sakaka Al Jouf|-3.0|SA|29.785133|40.100006|
AJI|LTCO||A&amp;#287;ri|Агри|Agri|+1.0|IT|39.654569|43.027150|
AJJ|GQNJ|Акжужт|Akjoujt|Акжужт|Akjoujt|+0.0|MR|19.731667|-14.379444|
AJK|OIHR||Araak||Araak|+3.5|IR|34.138147|49.847292|
AJL|VEAZ|Айзаул|Aizawl|Айзаул|Aizawl|-5.5|IN|23.746603|92.802767|
AJN|FMCV||Ouani|Анжуан|Anjouan|+3.0|KM|-12.131667|44.430279|
AJO||Альюф|Aljouf|Альюф|Aljouf|+3.0|YE|15.717|44.250|
AJR|ESNX|Арвидсьяур|Arvidsjaur|Арвидсьяур|Arvidsjaur|+1.0|SE|65.590278|19.281944|
AJS||Абреохос|Abreojos|Абреохос|Abreojos|+7.0|MX|26.727222|-113.559444|
AJU|SBAR|Санта Мария|Santa Maria|Аракайю|Aracaju|-2.0|BR|-10.984000|-37.070333|
AJY|DRZA||Agades||Agades|+1.0|NE|16.965997|8.000114|
AKA|ZLAK|Анькан|Ankang|Анькан|Ankang|-8.0|CN|32.708056|108.931389|
AKB|PAAK||Atka||Atka|-10.0|US|52.220586|-174.206183|
AKC|KAKR||Fulton International||Akron/Canton||ZA|41.037500|-81.466917|
AKD|VAAK|Акола|Akola|Акола|Akola|+5.5|IN|20.699006|77.058628|
AKE||Акиени|Akieni|Акиени|Akieni|+1.0|GA|-1.129436|13.920506|
AKF|HLKF|Куфра|Kufrah|Куфра|Kufrah|+2.0|LY|24.178728|23.313958|
AKG||Ангуганак|Anguganak|Ангуганак|Anguganak|-10.0|PG|-3.550|142.217|
AKH|OEPS||Prince Sultan Air Base||Al Kharj|+3.0|SA|24.062700|47.580536|
AKI|PFAK||Akiak||Akiak|-9.0|US|60.902889|-161.230583|
AKJ|RJEC|Асахикава|Asahikawa|Асахикава|Asahikawa|+9.0|JP|43.670833|142.447500|http://www.aapb.co.jp/
AKK|PAKH||Akhiok SPB||Akhiok|-9.0|US|56.938691|-154.182556|
AKL|NZAA||Auckland International|Окленд|Auckland|+13.0|NZ|-37.008056|174.791667|http://www.auckland-airport.co.nz/
AKM||Закума|Zakouma|Закума|Zakouma|+1.0|TD|10.900|19.817|
AKN|PAKN||King Salmon||King Salmon|-9.0|US|58.676493|-156.648691|
AKO|KAKO||Colorado Plains Regional Airport|Akron|Akron, CO|-7.0|US|40.175633|-103.222028|
AKP|PAKP||Anaktuvuk||Anaktuvuk|-9.0|US|68.133597|-151.743342|
AKQ|WIAG||Gunung Batin|Астраксетра|Astraksetra|+7.0|ID|-4.612|105.232|
AKR|DNAK|Акере|Akure|Акере|Akure|-1.0|NG|7.246739|5.301008|
AKT|LCRA||Akrotiri Raf|Акротири|Akrotiri|+2.0|CY|34.590416|32.987861|
AKU|ZWAK|Аксу|Aksu|Аксу|Aksu|-8.0|CN|41.262500|80.291667|
AKV|CYKO||Akulivik||Akulivik|-5.0|CA|60.818611|-78.148611|
AKW|OIAG||Aghajari||Aghajari|+0.0|IR|30.744450|49.677183|
AKX|UATT|Актюбинск|Aktyubinsk|Актюбинск|Aktyubinsk|+5.0|KZ|50.245833|57.206667|
AKY|VYSW||Civil||Sittwe|-6.5|MM|20.132708|92.872628|
ALA|UAAA|Алматы|Almaty|Алматы|Almaty|+6.0|KZ|43.352072|77.040508|http://www.alaport.com
ALB|KALB|Олбани международный|Albany International|Олбани|Albany|-8.0|US|42.749111|-73.801972|http://www.albanyairport.com
ALC|LEAL||Alicante El Altet|Аликанте|Alicante|+1.0|ES|38.282169|-0.558156|
ALD|SPAR|Алерта|Alerta|Алерта|Alerta|-5.0|PE|-11.683|-69.333|
ALE|||Alpine||Alpine|-6.0|US|30.384222|-103.683583|
ALF|ENAT|Альта|Alta|Алта|Alta|+1.0|NO|69.976111|23.371667|
ALG|DAAG||Houari Boumediene||Algiers|+1.0|DZ|36.694444|3.216944|http://www.egsa.dz
ALH|YABA|Олбани|Albany|Олбани|Albany|+9.0|AU|-34.943333|117.808889|
ALI|KALI||International||Alice|-6.0|US|27.740889|-98.026944|
ALJ|FAAB|Кортдум|Kortdoorn|Александер-Бей|Alexander Bay|+2.0|ZA|-28.575001|16.533332|
ALK||Асела|Asela|Асела|Asela|-3.0|ET|7.967|39.117|
ALL|LIMG|Албенга|Albenga|Албенга|Albenga|+1.0|IT|44.050608|8.127428|
ALM|KALM||Municipal|Аламогордо|Alamogordo|-7.0|US|32.839944|-105.990583|
ALN|KALN|Альтон|Alton||Alton|-6.0|US|38.889917|-90.045989|
ALO|KALO|Ватерло|Waterloo|Ватерло|Waterloo|+6.0|US|42.557081|-92.400344|
ALP|OSAP||Nejrab|Алеппо|Aleppo|+2.0|SY|36.180675|37.224358|
ALQ|SSAL||Federal||Alegrete|+3.0|BR|-29.800274|-55.763054|
ALR|NZLX|Александра|Alexandra|Александра|Alexandra|+13.0|NZ|-45.211667|169.373333|
ALS|KALS||Municipal|Аламоса|Alamosa|-7.0|US|37.434917|-105.866556|
ALT|||Alenquer||Alenquer|-4.0|BR|-1.917499|-54.721111|
ALU|HCMA|Алула|Alula|Алула|Alula|-3.0|SO|11.950|50.733|
ALV|||Andorra La Vella H/P|Андорра-ла-Велла|Andorra La Vella|+1.0|AD|42.506|1.522|
ALW|KALW||Walla Walla||Walla Walla|+8.0|US|46.094778|-118.289000|http://www.wallawallaairport.com
ALX|KALX||Thomas C Russell Fld||Alexander City|-6.0|US|32.914744|-85.962956|
ALY|HEAX||El Nohza|Александрия|Alexandria|+2.0|EG|31.183903|29.948889|
ALZ|KALZ||Alitak SPB||Alitak|-9.0|US|56.899487|-154.247847|
AMA|KAMA||Rick Husband Amarillo International||Amarillo, TX|-6.0|US|35.219361|-101.705917|
AMB|FMNE|Амбилобе|Ambilobe|Амбилобе|Ambilobe|+3.0|MG|-13.188431|48.987978|
AMC|FTTN||Am Timan||Am Timan|+1.0|TD|11.034|20.274|
AMD|VAAH|Ахмедабад|Ahmedabad|Ахмедабад|Ahmedabad|+5.5|IN|23.077242|72.634650|http://www.ahmedabadairport.com/
AME||Альто-Молокуэ|Alto Molocue|Альто-Молокуэ|Alto Molocue|-2.0|MZ|-15.633|37.700|
AMF||Ама|Ama|Ама|Ama|-10.0|PG|-4.100|141.667|
AMG|||Amboin||Amboin|-10.0|PG|-4.600|143.500|
AMH|HAAM|Арба-Минч|Arba Mintch|Арба-Минч|Arba Mintch|+3.0|ET|6.039389|37.590453|
AMI|WADA||Selaparang||Mataram|+8.0|ID|-8.560708|116.094656|
AMJ|SNAR|Альменара|Almenara||Almenara|+3.0|BR|-16.165963|-40.684436|
AMK|||Animas Airpark|Дуранго|Durango|-7.0|US|37.203178|-107.869195|
AML|||Puerto Armuellas||Puerto Armuellas|+5.0|PA|8.268056|-82.864944|
AMM|OJAI||Queen Alia Intl|Амман|Amman|+2.0|JO|31.722556|35.993214|
AMN|KAMN||Gratiot Community||Alma|-5.0|US|43.322139|-84.687944|
AMO|FTTU|Мао|Mao|Мао|Mao|-1.0|TD|14.145556|15.314444|
AMP|FMSY|Ампанихи|Ampanihy|Ампанихи|Ampanihy|-3.0|MG|-24.699722|44.734167|
AMQ|WAPP||Pattimura|Амбон|Ambon|+8.0|ID|-3.710264|128.089136|
AMR||Арно|Arno|Арно|Arno|+12.0|MH|7.083|171.683|
AMS|EHAM||Amsterdam-Schiphol|Амстердам|Amsterdam|+1.0|NL|52.308613|4.763889|http://www.schiphol.com/
AMT|YAMT|Амата|Amata||Amata|-9.5|AU|-26.102778|131.206667|
AMU||Аманаб|Amanab|Аманаб|Amanab|-10.0|PG|-3.583|141.200|
AMV|ULDD|Амдерма|Amderma|Амдерма|Amderma|-2.0|RU|69.763333|61.556389|
AMW|KAMW|Амес|Ames||Ames|-6.0|US|41.992056|-93.621833|
AMX|YAMM||Ammaroo||Ammaroo|-9.5|AU|-21.739167|135.243056|
AMY||Амбатомаинти|Ambatomainty|Амбатомаинти|Ambatomainty|-3.0|MG|-17.683|45.617|
AMZ|NZAR|Ардмор|Ardmore|Ардмор|Ardmore|+13.0|NZ|-37.029722|174.973333|
ANA|KANA||Orange County Steel Salvage Heliport|Анахайм|Anaheim|-8.0|US|33.812500|-117.918889|
ANB|KANB||Anniston Metropolitan||Anniston|-6.0|US|33.588167|-85.858111|
ANC|PANC||Ted Stevens Anchorage International Airport|Анкораж|Anchorage|-9.0|US|61.174361|-149.996361|http://www.anchorageairport.com
AND|KAND|Андерсон|Anderson||Anderson|-5.0|US|34.494583|-82.709389|
ANE|LFJR||Marce|Анжер|Angers|+1.0|FR|47.560211|-0.312128|http://www.angers.aeroport.fr/
ANF|SCFA||Cerro Moreno|Антофагаста|Antofagasta|-3.0|CL|-23.444478|-70.445100|
ANG|LFBU||Brie-Champniers|Ангулем|Angouleme|+1.0|FR|45.729475|0.219153|
ANH|||Anuha Island Resort||Anuha Island Resort|+11.0|SB|-8.983|160.500|
ANI|PANI||Aniak||Aniak|-9.0|US|61.581597|-159.543043|
ANJ|FCBZ|Занага|Zanaga|Занага|Zanaga|-1.0|CG|-2.850|13.817|
ANK|LTAD||Etimesgut|Анкара|Ankara|+2.0|TR|39.949831|32.688622|
ANL|FNAL|Андуло|Andulo|Андуло|Andulo|-1.0|AO|-11.471389|16.710833|
ANM|FMNH|Антсирабато|Antsirabato|Анталаха|Antalaha|+3.0|MG|-14.999411|50.320233|
ANN|PANT||Annette Island||Annette Island|-9.0|US|55.042437|-131.572232|
ANO|FQAG||Angoche||Angoche|-2.0|MZ|-16.181944|39.944722|
ANP|KANP|Ли|Lee|Аннаполис|Annapolis|-5.0|US|38.942878|-76.568399|
ANQ|KANQ||Tri-State Steuben Cty|Ангола|Angola|-5.0|US|41.639698|-85.083493|
ANR|EBAW||Deurne|Антверпен|Antwerp|+1.0|BE|51.189444|4.460278|http://www.antwerpairport.be
ANS|SPHY|Андауайлас|Andahuaylas|Андауайлас|Andahuaylas|-5.0|PE|-13.706408|-73.350378|
ANT|PHKO||St Anton||St Anton|+0.0|AT|0|0|
ANU|TAPA||V. C. Bird Intl||St. John&#039;s|-4.0|AG|17.136667|-61.792778|
ANV|PANV||Anvik||Anvik|-9.0|US|62.647328|-160.190067|
ANW|KANW||Ainsworth||Ainsworth|-6.0|US|42.579228|-99.992967|
ANX|ENAN|Анденес|Andenes|Анденес|Andenes|+1.0|NO|69.292500|16.144167|
ANY|KANY||Anthony||Anthony|-6.0|US|37.158522|-98.079647|
ANZ|||Angus Downs||Angus Downs|-9.5|AU|-25.034|132.276|
AOA||Ароа|Aroa|Ароа|Aroa|+10.0|PG|-9.017|146.800|
AOB||Аннаберг|Annanberg|Аннаберг|Annanberg|-10.0|PG|-4.917|144.650|
AOC|EDAC||Altenburg Nobitz|Альтенбург|Altenburg|+1.0|DE|50.981817|12.506361|http://www.flughafen-altenburg.de
AOD||Абу-Дейя|Abou Deia|Абу-Дейя|Abou Deia|-1.0|TD|11.467|19.283|
AOE|OPKC||Anadolu University|Эскишехир|Eskisehir|+2.0|TR|39.811666666667|30.528611111111|
AOG|ZYAS|Аншан|Anshan|Аньшань|Anshan|+8.0|CN|41.105278|122.853889|
AOH|KAOH||Allen County|Лима|Lima|-5.0|US|40.707478|-84.027078|
AOI|LIPY||Falconara|Анкона|Ancona|+1.0|IT|43.616342|13.362319|http://www.ancona-airport.com
AOJ|RJSA|Аомори|Aomori|Аомори|Aomori|+9.0|JP|40.734722|140.690833|
AOK|LGKP|Карпатос|Karpathos|Карпатос|Karpathos|+2.0|GR|35.421408|27.146008|
AOL|SARL||Paso De Los Libres||Paso De Los Libres|+3.0|AR|-29.689425|-57.152078|
AON||Арона|Arona|Арона|Arona|-10.0|SB|-6.300|146.017|
AOO|KAOO|Мартинсбург|Martinsburg||Martinsburg|-5.0|US|40.296361|-78.320028|
AOR|WMKA|Алор-Сетар|Alor Setar|Алор-Сетар|Alor Setar|+8.0|MY|6.189667|100.398183|
AOS|HTDA||Amook||Amook|-9.0|US|57.466666666667|-153.83333333333|
AOT|LIMW||Corrado Gex|Аоста|Aosta|+0.0|IT|45.738456|7.368719|
AOU|VLAP|Аттопью|Attopeu|Аттопью|Attopeu|+7.0|LA|14.800|106.833|
APA|KAPA||Arapahoe Co|Денвер|Denver|-7.0|US|39.570111|-104.849306|
APB|SLAP|Аполо|Apolo|Аполо|Apolo|-4.0|BO|-14.733|-68.417|
APC|KAPC||Napa County|Напа|Napa|+8.0|US|38.213194|-122.280694|
APE|SPAO|Сан-Хуан-Апосенто|San Juan Aposento|Сан-Хуан-Апосенто|San Juan Aposento|+5.0|PE|-15.350|-75.167|
APF|KAPF|Неаполь|Naples|Неаполь|Naples|-5.0|US|26.152287|-81.775793|
APG|KAPG||Phillips AAF||Aberdeen|-5.0|US|39.466219|-76.168808|
APH|KAPH||Camp A P Hill||Bowling Green|-6.0|US|38.068833|-77.318333|
API|SKAP|Апиай|Apiay|Апиай|Apiay|-5.0|CO|4.076069|-73.562731|
APK|NTGD||Apataki||Apataki|+10.0|PF|-15.573611|-146.415278|
APL|FQNP|Нампула|Nampula|Нампула|Nampula|+2.0|MZ|-15.105611|39.281800|
APN|KAPN||Alpena County Regional||Alpena|-5.0|US|45.078083|-83.560306|
APO|SKLC|Апартадо|Apartado|Апартадо|Apartado|+5.0|CO|7.811817|-76.716325|
APP||Асапа|Asapa|Асапа|Asapa|-10.0|PG|-8.967|148.100|
APQ|SNAL||Arapiraca||Arapiraca|+3.0|BR|-9.775358|-36.629200|
APR||Эйприл-Ривер|April River|Эйприл-Ривер|April River|-10.0|PG|-4.700|142.533|
APS|SWNS|Анаполис|Anapolis||Anapolis|-2.0|BR|-16.362336|-48.927053|
APT|KAPT||Marion County|Джаспер|Jasper|+6.0|US|35.060678|-85.585317|
APU|SSAP||Apucarana||Apucarana|-2.0|BR|-23.609511|-51.384486|
APV|KAPV|Эппл Вэлли|Apple Valley|Эппл Вэлли|Apple Valley|-8.0|US|34.575333|-117.186194|
APW|NSFA||Faleolo||Apia|-11.0|WS|-13.829667|-171.997167|
APX|SSOG||Arapongas||Arapongas|-2.0|BR|-23.352856|-51.491656|
APY|SNAI||Alto Parnaiba||Alto Parnaiba|+3.0|BR|-9.083605|-45.950554|
APZ|SAHZ|Запала|Zapala|Запала|Zapala|+3.0|AR|-38.975500|-70.113581|
AQA|SBAQ||Araraquara||Araraquara|-2.0|BR|-21.812000|-48.133028|
AQB|MGQC||Quiche Airport||Quiche|-6.0|GT|15.012222|-91.150556|
AQG|ZSAQ|Аньцин|Anqing|Аньцин|Anqing|-8.0|CN|30.582222|117.050278|
AQI|OEPA|Кайсумах|Qaisumah|Кайсумах|Qaisumah|-3.0|SA|28.335192|46.125069|
AQJ|OJAQ||King Hussein Intl|Акаба|Aqaba|+2.0|JO|29.611619|35.018067|
AQM|SWNI||Ariquemes||Ariquemes|+4.0|BR|-10.177778|-62.826111|
AQP|SPQU||Rodriguez Ballon|Арекуипа|Arequipa|-5.0|PE|-16.341072|-71.583083|
AQS||Сакани|Saqani|Сакани|Saqani|-12.0|FJ|-16.450|179.733|
AQY|KAQY||Alyeska||Alyeska|-9.0|US|60.966096|-149.125789|
ARA|KARA||Acadiana Regional||New Iberia|-6.0|US|30.037758|-91.883896|
ARB|KARB||Municipal||Ann Arbor, MI|-5.0|US|42.222984|-83.745607|
ARC|PARC||Arctic Village||Arctic Village|-9.0|US|68.114669|-145.579415|
ARD|WATM|Алор-Айленд|Alor Island|Алор-Айленд|Alor Island|-8.0|ID|-8.132336|124.597014|
ARE|TJAB||Arecibo||Arecibo|-4.0|PR|18.451111|-66.675556|
ARF|||Acaricuara||Acaricuara|+5.0|CO|0.567|-72.400|
ARG|KARG||Walnut Ridge||Walnut Ridge|+6.0|US|36.124667|-90.925111|
ARH|ULAA|Талаги|Talagi|Архангельск|Arkhangelsk|+3.0|RU|64.600280|40.716667|http://arhport.ru/rus/com-airport.htm
ARI|SCAR||Chacalluta|Арика|Arica|-3.0|CL|-18.348531|-70.338742|
ARJ|WAJA|Арсо|Arso|Арсо|Arso|+9.0|ID|-2.917|140.783|
ARK|HTAR|Аруша|Arusha|Аруша|Arusha|+3.0|TZ|-3.367794|36.633333|
ARL|DFER|Арли|Arly|Арли|Arly|+0.0|BF|11.597|1.483|
ARM|YARM|Армидаль|Armidale|Армидаль|Armidale|-10.0|AU|-30.528056|151.617222|
ARN|ESSA||Arlanda|Стокгольм|Stockholm|+1.0|SE|59.651944|17.918611|http://www.lfv.se/arlanda
ARO||Арболетас|Arboletas|Арболетас|Arboletas|-5.0|CO|8.833|-76.433|
ARP||Араджип|Aragip|Араджип|Aragip|-10.0|PG|-9.867|149.483|
ARQ||Араукита|Arauquita|Араукита|Arauquita|-5.0|CO|7.021058|-71.388864|
ARR|SAVR|Альто-Рио-Сенгерр|Alto Rio Senguerr|Альто-Рио-Сенгерр|Alto Rio Senguerr|+3.0|AR|-45.017|-70.800|
ARS|SWEC||Aragarcas||Aragarcas|-3.0|BR|-15.896733|-52.095564|
ART|KART||Watertown||Watertown|+5.0|US|43.991917|-76.021750|
ARU|SBAU||Aracatuba||Aracatuba|+3.0|BR|-21.141342|-50.424722|
ARV|KARV||Noble F. Lee||Minocqua|-6.0|US|45.927917|-89.730944|
ARW|LRAR|Арад|Arad|Арад|Arad|+2.0|RO|46.176550|21.262022|http://www.aeroportularad.ro/
ARX|OIHR||Asbury Park||Neptune, NJ|-5.0|US|40.219444444444|-74.09|
ARY|YARA||Ararat||Ararat|+10.0|AU|-37.309444|142.988611|
ASA|HHSB||Assab International|Ассаб|Assab|+3.0|ER|13.071783|42.645006|
ASB|UTAA||Ashgabat|Ашхабад|Ashgabat|+5.0|TM|37.986814|58.360967|
ASC|SLAS|Аскеншн|Ascension|Аскеншн|Ascension|-4.0|BO|-15.717|-63.100|
ASD|MYAF||Andros Town||Andros Town|-5.0|BS|24.698283|-77.795611|
ASE|KASE|Аспен|Aspen|Аспен|Aspen|-7.0|US|39.223167|-106.868861|
ASF|URWA|Астрахань|Astrakhan|Астрахань|Astrakhan|+4.0|RU|46.283333|48.006278|
ASG|NZAS|Ашбертон|Ashburton|Ашбертон|Ashburton|+13.0|NZ|-43.903333|171.796667|
ASH|KASH||Boire Field||Nashua, NH|-5.0|US|42.781750|-71.514778|
ASI|FHAW||Wideawake Field||Georgetown, Ascension Island|+0.0|SH|-7.969597|-14.393664|
ASJ|RJKA|Амами-О-Сима|Amami O Shima|Амами-О-Сима|Amami O Shima|+9.0|JP|28.430633|129.712542|
ASK|DIYO||Yamoussoukro||Yamoussoukro|+0.0|CI|6.903167|-5.365581|
ASL|KASL||Harrison County|Маршалл|Marshall|-6.0|US|32.520500|-94.307778|
ASM|HHAS||Yohannes IV||Asmara|+3.0|ER|15.291853|38.910667|
ASN|KASN||Talladega|Талладега|Talladega|-6.0|US|33.569471|-86.051230|
ASO|HASO|Асоса|Asosa|Асоса|Asosa|+3.0|ET|10.018550|34.586253|
ASP|YBAS|Элис Спрингз|Alice Springs|Элис Спрингз|Alice Springs|+10.5|AU|-23.806667|133.902222|
ASQ|KTMT|Остин|Austin|Остин|Austin|-6.0|US|39.467981|-117.195370|
ASR|LTAU||Erkilet International Airport|Кайсери|Kayseri|+2.0|TR|38.770386|35.495428|
AST|KAST||Astoria||Astoria|-8.0|US|46.157972|-123.878694|
ASU|SGAS||Silvio Pettirossi|Асунсьон|Asuncion|-3.0|PY|-25.239850|-57.519133|
ASV|HKAM|Амбосели|Amboseli|Амбосели|Amboseli|-3.0|KE|-2.633|37.250|
ASW|HESN|Асуан|Aswan|Асуан|Aswan|+2.0|EG|23.964356|32.819975|
ASX|KASX|Эшленд|Ashland|Эшленд|Ashland|-6.0|US|46.548528|-90.918972|
ASY|KASY||Ashley||Ashley|-6.0|US|46.023863|-99.352614|
ASZ||Асирим|Asirim|Асирим|Asirim|+0.0|PG|-5.867|150.367|
ATA|SPHZ|Анта|Anta|Анта|Anta|-5.0|PE|-9.347444|-77.598392|
ATB|HSAT|Атбара|Atbara|Атбара|Atbara|+3.0|SD|17.709722|34.056944|
ATD|AGAT|Атоифи|Atoifi|Атоифи|Atoifi|-11.0|SB|-8.873333|161.011389|
ATE|KATE||Antlers||Antlers|-6.0|US|34.192601|-95.649859|
ATF|SEAM||Chachoan|Амбато|Ambato|-5.0|EC|-1.212067|-78.574636|
ATG|SPAY||Attock||Attock|+5.0|PK|33.900|72.250|
ATH|LGAV||Eleftherios Venizelos|Афины|Athens|+2.0|GR|37.936358|23.944467|http://www.aia.gr
ATI|SUAG|Артигас|Artigas|Артигас|Artigas|-2.0|UY|-30.400706|-56.507869|
ATJ|FMME|Анцирабе|Antsirabe|Анцирабе|Antsirabe|+3.0|MG|-19.836944|47.065278|
ATK|PATQ||Atqasuk||Atqasuk|-9.0|US|70.467276|-157.435736|
ATL|KATL||Hartsfield-jackson Atlanta International||Atlanta, GA|-5.0|US|33.636720|-84.428066|http://www.atlanta-airport.com/
ATM|SBHT|Альтамира|Altamira||Altamira|-4.0|BR|-3.253906|-52.253978|
ATN||Наматанай|Namatanai|Наматанай|Namatanai|-10.0|PG|-3.667|152.433|
ATO|KUNI||Ohio University|Афины|Athens|+2.0|GR|39.211893|-82.229255|
ATP|||Airstrip|Айтейп|Aitape|-10.0|PG|-3.133|142.333|
ATQ|VIAR||Raja Sansi|Амритсар|Amritsar|+5.5|IN|31.709594|74.797264|
ATR|GQPA||Mouakchott|Атар|Atar|+0.0|MR|20.506828|-13.043194|
ATS|KATS||Artesia||Artesia|-7.0|US|32.852528|-104.467686|
ATT|||Atmautluak||Atmautluak|-9.0|US|60.866746|-162.273139|
ATU|PAAT||Casco Cove||Attu Island|-10.0|US|52.832542|173.175554|
ATV|FTTI|Ати|Ati|Ати|Ati|-1.0|TD|13.238889|18.313333|
ATW|KATW||Outagamie County|Эпплтон|Appleton|-6.0|US|44.258083|-88.519083|http://www.atwairport.com/
ATX||Атбасар|Atbasar|Атбасар|Atbasar|-2.0|KZ|51.851667|68.363333|
ATY|KATY||Watertown||Watertown|+5.0|US|44.913972|-97.154722|
ATZ|HEAT|Асьют|Assiut|Асьют|Assiut|+2.0|EG|27.046508|31.011983|
AUA|TNCA||Reina Beatrix||Aruba|-4.0|AW|12.501389|-70.015221|http://www.airportaruba.com
AUB|EDXY||Itauba||Itauba|+0.0|BR|-7.1|-41.983333333333|
AUC|SKUC|Араука|Arauca|Араука|Arauca|-5.0|CO|7.068889|-70.736944|
AUD|YAGD||Augustus Downs||Augustus Downs|-10.0|AU|-18.507500|139.883611|
AUE|||Abu Rudeis||Abu Rudeis|-2.0|EG|28.899017|33.202461|
AUF|LFLA||Auxerre Branches||Auxerre|+1.0|FR|47.846328|3.496578|
AUG|KAUG||Augusta||Augusta|-5.0|US|44.320650|-69.797318|
AUH|OMAA|Абу-Даби|Abu Dhabi International|Абу-Даби|Abu Dhabi|+4.0|AE|24.432972|54.651138|http://www.dcaauh.gov.ae
AUI|||Aua Island||Aua Island|-10.0|PG|-1.450|143.067|
AUJ||Амбунти|Ambunti|Амбунти|Ambunti|-10.0|PG|-4.217|142.817|
AUK|PAUK||Alakanuk||Alakanuk|-9.0|US|62.680044|-164.659925|
AUL|||Aur Island||Aur Island|+12.0|MH|8.145277|171.173056|
AUM|KAUM|Остин|Austin|Остин|Austin|-6.0|US|43.662639|-92.932917|
AUN|KAUN|Обурн|Auburn|Обурн|Auburn|-6.0|US|38.954806|-121.081722|
AUO|KAUO||Auburn-Opelika|Обурн|Auburn|-6.0|US|32.615111|-85.434000|
AUP||Агаун|Agaun|Агаун|Agaun|-10.0|PG|-9.917|149.383|
AUQ|NTMN||Atuona||Atuona|-9.0|PF|-9.768794|-139.011256|
AUR|LFLW|Орийак|Aurillac|Орийак|Aurillac|-1.0|FR|44.897583|2.416719|
AUT|WPAT|Атауро|Atauro|Атауро|Atauro|+9.0|ID|-8.267|125.602|
AUU|YAUR||Aurukun Mission||Aurukun Mission|+10.0|AU|-13.353889|141.720833|
AUV|EDXY||Aumo||Aumo|+0.0|PG|-5.7333333333333|148.5|
AUW|KAUW||Municipal||Wausau|+6.0|US|44.926285|-89.627002|
AUX|SWGN||Araguaina||Araguaina|+3.0|BR|-7.227867|-48.240467|
AUY|NVVA|Анейтьюм|Aneityum|Анейтьюм|Aneityum|-11.0|VU|-20.249167|169.771389|
AUZ|KARR||Municipal Airport||Aurora|-6.0|US|41.771917|-88.475667|
AVA|||An Shun/Huang Guo Shu||An Shun|+0.0|CN|26.260556|105.873056|
AVB|LIPA|Авиано|Aviano||Aviano|+1.0|IT|46.031889|12.596472|
AVF||Авориаз|Avoriaz|Аворьяз|Avoriaz|+1.0|FR|46.2|6.7666666666667|
AVG|YAUV|Овернь|Auvergne|Овернь|Auvergne|-9.5|AU|-15.690278|130.008611|
AVI|MUCA||Maximo Gomez||Ciego De Avila|-5.0|CU|22.027053|-78.789617|
AVK|ZMAH||Arvaikheer||Arvaikheer|-8.0|MN|46.250397|102.802078|
AVL|KAVL||Asheville Regional Airport||Fletcher|-5.0|US|35.436194|-82.541806|http://www.flyavl.com/
AVN|LFMV||Avignon-Caum|Авиньон|Avignon|+1.0|FR|43.906581|4.902028|
AVO|KAVO||Municipal||Avon Park|-5.0|US|27.591300|-81.528967|
AVP|KAVP||Wilkes-Barre/Scranton International Airport||Wilkes-Barre/Scranton, PA|+5.0|US|41.338472|-75.723389|
AVU|AGGJ|Аву-Аву|Avu Avu|Аву-Аву|Avu Avu|+11.0|SB|-9.867|160.400|
AVV|YMAV|Мельбурн-аэропорт Авалон|Avalon|Гелонг|Geelong|+11.0|AU|-38.039444|144.469444|
AVW|KAVQ||Avra Valley|Туксон|Tucson|+0.0|US|32.409556|-111.218389|
AVX|KAVX||Avalon Bay||Catalina Island|-8.0|US|33.404997|-118.415769|
AWA|HALA|Авасса|Awassa|Авасса|Awassa|+3.0|ET|7.067222|38.490278|
AWB||Аваба|Awaba|Аваба|Awaba|-10.0|PG|-8.000|142.750|
AWD|NVVB|Анива|Aniwa|Анива|Aniwa|-11.0|VU|-19.240000|169.605000|
AWE||Алове|Alowe|Алове|Alowe|+1.0|GA|-0.750|9.450|
AWH|HAAW|Аварех|Awareh|Аварех|Awareh|-3.0|ET|8.267|44.183|
AWK|PWAK||Wake Island||Wake Island|-12.0|UM|19.282490|166.636661|
AWM|KAWM||Municipal||West Memphis|+6.0|US|35.135059|-90.234446|
AWN|YADS||Alton Downs||Alton Downs|-9.5|AU|-26.533|139.267|
AWP|YAUS||Austral Downs||Austral Downs|-10.0|AU|-20.492778|137.766111|
AWR||Авар|Awar|Авар|Awar|-10.0|PG|-4.117|144.850|
AWZ|OIAW|Ахваз|Ahwaz|Ахваз|Ahwaz|+3.5|IR|31.337431|48.761950|
AXA|TQPF||Wallblake||Anguilla|-4.0|AI|18.204722|-63.053889|
AXB|KAXB|Александрия Бэй|Alexandria Bay||Alexandria Bay|-5.0|US|44.316717|-75.899673|
AXC|YAMC||Aramac||Aramac|-10.0|AU|-22.967|145.233|
AXD|LGAL|Димокритос|Dimokritos|Александрополи|Alexandroupolis|+2.0|GR|40.855869|25.956264|http://www.hcaa-eleng.gr/alexan.htm
AXE|KBAX||Xanxere||Xanxere|+0.0|BR|-26.883333333333|-52.383333333333|
AXG|KAXA|Алгона|Algona||Algona|-6.0|US|43.077911|-94.271993|
AXK|OYAT|Атак|Ataq|Атак|Ataq|+3.0|YE|14.551322|46.826183|
AXL|YALX|Александрия|Alexandria|Александрия|Alexandria|+9.5|AU|-19.061667|136.713333|
AXM|SKAR||El Eden|Армения|Armenia|-5.0|CO|4.453333|-75.765833|
AXN|KAXN|Александрия|Alexandria|Александрия|Alexandria|-6.0|US|45.866306|-95.394667|
AXP|MYAP||Springpoint Arpt||Spring Point||TC|22.441828|-73.970858|
AXR|NTGU||Arutua||Arutua|+10.0|PF|-15.246389|-146.620278|
AXS|KAXS||Municipal||Altus|-6.0|US|34.698806|-99.338472|
AXT|RJSK|Акита|Akita|Акита|Akita|+9.0|JP|39.615556|140.218611|http://www.akita-airport.com/
AXU|HAAX|Аксум|Axum|Аксум|Axum|+3.0|ET|14.146750|38.772833|
AXV|KAXV||Neil Armstrong||Wapakoneta|+5.0|US|40.493556|-84.298083|
AXX|KAXX||Angel Fire||Angel Fire|-7.0|US|36.422000|-105.289905|
AYA||Айапел|Ayapel|Айапел|Ayapel|+5.0|CO|8.283|-75.133|
AYC||Айакучо|Ayacucho|Аякучо|Ayacucho|-5.0|PE|8.600|-73.600|
AYD|||Alroy Downs||Alroy Downs|-9.5|AU|-19.290833|136.079444|
AYE|MTPP||AAF Heliport||Fort Devens|-5.0|HT|19.833333333333|-72.5|
AYG|SKYA|Ягуара|Yaguara|Ягуара|Yaguara|-5.0|CO|1.544167|-73.933333|
AYH|||RAF Station||Alconbury|+0.0|GB|52.366666666667|-0.26666666666667|
AYI||Яри|Yari|Яри|Yari|+5.0|CO|-0.383|-72.267|
AYK|UAUR|Аркалык|Arkalyk|Аркалык|Arkalyk|-2.0|KZ|50.318611|66.952777|
AYL|YANL||Anthony Lagoon||Anthony Lagoon|-9.5|AU|-18.020556|135.540278|
AYN|ZHAY|Аньян|Anyang|Аньян|Anyang|+8.0|CN|36.133889|114.343889|
AYO|MTPP||Ayolas||Ayolas|+3.0|UG|2.05|33.75|
AYP|SPHO||Yanamilla|Аякучо|Ayacucho|-5.0|PE|-13.154819|-74.204417|
AYQ|YAYE||Connellan|Айерс Рок|Ayers Rock|+10.5|AU|-25.186111|130.975556|
AYR|YAYR|Эйр|Ayr|Эйр|Ayr|+10.0|AU|-19.584444|147.329167|
AYS|KAYS||Ware County||Waycross|+5.0|US|31.248397|-82.395395|
AYT|LTAI|Анталия|Antalya|Анталия|Antalya|+2.0|TR|36.898731|30.800461|http://www.aytport.com
AYU||Айюра|Aiyura|Айюра|Aiyura|-10.0|PG|-6.333|145.900|
AYW|WRTA|Аяваси|Ayawasi|Аяваси|Ayawasi|-9.0|ID|-1.133|132.467|
AYZ|WRTA||Zahns||Amityville|-5.0|US|40.666666666667|-73.416666666667|
AZB||Амазон-Бей|Amazon Bay|Амазон-Бей|Amazon Bay|-10.0|PG|-10.300|149.333|
AZD|OIYY|Язд|Yazd|Язд|Yazd|+3.5|IR|31.904908|54.276503|
AZG|MMAG|Апацинган|Apatzingan|Апацинган|Apatzingan|-6.0|MX|19.093425|-102.393608|
AZI|OMAD|Батин|Bateen|Абу-Даби|Abu Dhabi|+4.0|AE|24.428333|54.458084|
AZN|UTKA|Андижан|Andizhan|Андижан|Andizhan|+5.0|UZ|40.727739|72.294019|
AZO|KAZO||Kalamazoo/Battle Creek Intl|Каламазу|Kalamazoo|-5.0|US|42.234389|-85.551556|
AZP|HHSB||Atizapan|Мексико Сити|Mexico City|-6.0|MX|19.35|-99.116666666667|
AZR|DAUA|Адрар|Adrar||Adrar|+1.0|DZ|27.839167|-0.185278|
AZT||Запатока|Zapatoca|Запатока|Zapatoca|-5.0|CO|6.767|-73.267|
AZZ|FNAM||Ambriz||Ambriz|-1.0|AO|-7.862222|13.116111|
BAA||Биалла|Bialla|Биалла|Bialla|-10.0|PG|-5.330556|151.007778|
BAB|KBAB||Beale AFB||Marysville|-8.0|US|39.136089|-121.436567|
BAC|||Barranca De Upia||Barranca De Upia|+5.0|CO|4.567|-72.950|
BAD|KBAD||Barksdale AFB|Шревспорт|Shreveport|+6.0|US|32.501931|-93.662628|
BAE|LFMR|Барселонетта|Barcelonnette|Барселонетта|Barcelonnette|+1.0|FR|44.388333|6.610278|
BAF|KBAF||Barnes||Westfield|+0.0|US|42.157947|-72.715875|
BAG|RPUB||Loakan|Багуйо|Baguio|+8.0|PH|16.375103|120.619636|
BAH|OBBI||Bahrain International||Manama|+3.0|BH|26.270834|50.633610|http://www.bahrainairport.com
BAI|MRBA|Буэнос-Айрес|Buenos Aires|Буэнос-Айрес|Buenos Aires|-6.0|CR|9.163606|-83.329872|
BAJ||о.Бали|Bali|Бали|Bali|-10.0|PG|-4.883|149.133|
BAL|LTCJ||Batman||Batman|+2.0|TR|37.928969|41.116583|
BAM|KBAM||Lander County||Battle Mountain|-8.0|US|40.599046|-116.874336|
BAN|FZVR|Базонго|Basongo|Базонго|Basongo||CD|-4.317|20.433|
BAO|VTED||Udorn||Ban Mak Khaen|+7.0|TH|17.383|102.800|
BAP||Байбара|Baibara|Байбара|Baibara|-10.0|PG|-10.333|149.633|
BAQ|SKBQ||E Cortissoz|Барранкуилла|Barranquilla|-5.0|CO|10.889461|-74.780678|
BAR|||Baker Aaf|Бейкер-Айленд, шт. Аляска|Baker Island|+0.0|US|0.21666666666667|-176.51666666667|
BAS|AGGE|Балале|Balalae|Балале|Balalae|-11.0|SB|-6.990556|155.885833|
BAT|SBBT||Airport Chafei Amsei||Barretos|+3.0|BR|-20.584547|-48.594086|
BAU|SBBU||Bauru||Bauru|-2.0|BR|-22.345042|-49.053800|
BAV|ZBOW|Баотоу|Baotou|Баотоу|Baotou|-8.0|CN|40.559999|109.996944|
BAW||Биавонке|Biawonque|Биавонке|Biawonque|+1.0|GA|-0.867|9.283|
BAX|UNBB|Барнаул|Barnaul|Барнаул|Barnaul|+7.0|RU|53.363775|83.538533|
BAY|LRBM|Байя Маре|Baia Mare|Байя Маре|Baia Mare|+2.0|RO|47.658389|23.470022|
BAZ|SWBC||Barbelos||Barbelos|+4.0|BR|-0.981292|-62.919644|
BBA|SCBA||Teniente Vidal|Балмаседа|Balmaceda|-3.0|CL|-45.916058|-71.689475|
BBB|KBBB||Municipal||Benson|-6.0|US|45.331917|-95.650583|
BBC|KBYY|Бэй Сити|Bay City|Бэй Сити|Bay City|-6.0|US|28.973250|-95.863444|
BBD|KBBD||Curtis Field||Brady|-6.0|US|31.179278|-99.323917|
BBE|||Big Bell||Big Bell|-8.0|AU|-27.416666666667|117.66666666667|
BBF|KHBG||Burlington||Burlington|-5.0|US|42.5|-71.183333333333|
BBG|NGTU|Бутаритари|Butaritari|Бутаритари|Butaritari|+12.0|KI|3.085833|172.811111|
BBH|EDBH|Барт|Barth|Барт|Barth|+1.0|DE|54.337540|12.699705|http://www.ostseeflughafen-stralsund-barth.de/
BBI|VEBS|Бхубанесвар|Bhubaneswar|Бхубанесвар|Bhubaneswar|+5.5|IN|20.244364|85.817781|
BBJ|EDRB||Bitburg Air Base|Битбург|Bitburg|+1.0|DE|49.945333|6.565000|
BBK|FBKE|Касане|Kasane|Касане|Kasane|+2.0|BW|-17.832875|25.162400|
BBL|OINB|Баболсар|Babolsar|Баболсар|Babolsar|-3.5|IR|36.650|52.667|
BBM|VDBG|Баттамбанг|Battambang|Баттамбанг|Battambang|+7.0|KH|13.095564|103.224408|
BBN|WBGZ||Bario||Bario|+7.0|MY|3.736944|115.469444|
BBO|HCMI|Бербера|Berbera|Бербера|Berbera|+3.0|ET|10.389167|44.941106|
BBP|EGHJ||Bembridge||Bembridge|+0.0|GB|50.677778|-1.109444|
BBQ|TAPH||Barbuda||Barbuda|-4.0|AG|17.635833|-61.826944|
BBR|TFFB||Baillif||Basse Terre|-4.0|GP|16.013333|-61.742222|
BBS|EGLK||Blackbushe||Yateley|+0.0|GB|51.323889|-0.847500|http://www.blackbusheairport.co.uk
BBT|FEFT|Берберати|Berberati|Берберати|Berberati|+1.0|CF|4.221583|15.786369|
BBU|LRBS||Baneasa|Бухарест|Bucharest|+2.0|RO|44.503194|26.102111|http://www.baneasa.aero
BBV|DIGN||Hkg||Bereby|+0.0|CI|4.633|-6.917|
BBW|KBBW||Broken Bow||Broken Bow|-6.0|US|41.436451|-99.642169|
BBX|KLOM||Wings Field||Blue Bell|-5.0|US|40.137556|-75.265139|
BBY|FEFM|Бамбари|Bambari|Бамбари|Bambari|+1.0|CF|5.846944|20.647500|
BBZ|FLZB|Замбези|Zambezi|Замбези|Zambezi|+2.0|ZM|-13.537222|23.108333|
BCA|MUBA|Баракоа|Baracoa|Баракоа|Baracoa|-5.0|CU|20.365317|-74.506206|
BCB|KBCB||Virginia Tech||Blacksburg|-5.0|US|37.207639|-80.407833|
BCC|KBCC||Bear Creek||Bear Creek|+9.0|US|63.571609|-156.144051|
BCD|RPVB|Баколод|Bacolod|Баколод|Bacolod|+8.0|PH|10.642511|122.929617|
BCE|KBCE||Bryce||Bryce|-7.0|US|37.706444|-112.145806|
BCF|FEGU|Бука|Bouca|Бука|Bouca|-1.0|CF|6.517|18.267|
BCG|SYBE|Бемичи|Bemichi|Бемичи|Bemichi|+3.0|GY|7.700|-59.167|
BCH|WPEC||Cakung International|Баукау|Baucau|+9.0|TP|-8.485472|126.399333|
BCI|YBAR||Barcaldine||Barcaldine|-10.0|AU|-23.565278|145.306667|
BCJ|SCIP||Baca Grande||Baca Grande|-7.0|US|37.966666666667|-105.76666666667|
BCK|YBWR||Bolwarra||Bolwarra|-10.0|AU|-17.387500|144.168889|
BCL|MRBC|Барра-Колорадо|Barra Colorado|Барра-Колорадо|Barra Colorado|+6.0|CR|10.767|-83.583|
BCM|LRBC|Бакау|Bacau|Бакэу|Bacau|+2.0|RO|46.521944|26.910278|
BCN|LEBL||El Prat De Llobregat|Барселона|Barcelona|+1.0|ES|41.297078|2.078463|http://www.aena.es/csee/Satellite?pagename=Estandar%2FPage%2FAeropuerto&c=Page&MO=0&SMO=-1&SiteName=BCN%26cid%3D1045569607459
BCO|HABC||Jinka||Jinka|-3.0|ET|5.783|36.550|
BCP|||Bambu||Bambu||ET|-5.867|146.483|
BCQ|HLLQ|Вейл-Игл, шт. Колорадо|Brack|Вейл-Игл, шт. Колорадо|Brack|+2.0|NA|27.653|14.272|
BCR|SWNK||Boca Do Acre||Boca Do Acre|+4.0|BR|-8.834561|-67.312403|
BCS|||Southern Seaplane||Belle Chasse|-6.0|US|29.866039|-90.022293|
BCT|KBCT||Public|Бока Ратон|Boca Raton|-5.0|US|26.378500|-80.107694|
BCU||Баучи|Bauchi|Баучи|Bauchi|-1.0|NG|10.294444|9.816667|
BCV|PABV||Belmopan||Belmopan|-6.0|BZ|61.416083|-149.508306|
BCW|||Benguera Island||Benguera Island|+2.0|MZ|-21.853056|35.438333|
BCX|UWUB|Белорецк|Beloreck|Белорецк|Beloreck|-2.0|RU|53.938056|58.340000|
BCY|HABU|Бульчи|Bulchi|Бульчи|Bulchi|-3.0|ET|6.217|36.667|
BCZ|||Bickerton Island||Bickerton Island|-9.5|AU|-13.781944|136.201944|
BDA|TXKF||Kindley Field||Bermuda|-4.0|BM|32.364041|-64.678703|
BDB|YBUD|Бандаберг|Bundaberg|Бандаберг|Bundaberg|+10.0|AU|-24.903889|152.318611|
BDC|SNBC||Barra Do Corda||Barra Do Corda|+3.0|BR|-5.500269|-45.242222|
BDD|YBAU||Badu Island||Badu Island|-10.0|AU|-10.150000|142.174167|
BDE|KBDE||Baudette||Baudette|-6.0|US|48.728444|-94.612222|
BDF|KBDF||Rinkenberger||Bradford|-6.0|US|41.230871|-89.615652|
BDG|KBDG||Blanding||Blanding|-7.0|US|37.583337|-109.483289|
BDH|OIBL|Бандар-Ленге|Bandar Lengeh|Бандар-Ленге|Bandar Lengeh|+3.5|IR|26.532000|54.824847|
BDI|FSSB|Берд-Айленд|Bird Island|Берд-Айленд|Bird Island|+4.0|SC|-3.724722|55.205278|
BDJ|WAOO||Sjamsudin Noor|Банджармасин|Banjarmasin|+8.0|ID|-3.442356|114.762553|
BDK|DIBU||Bondoukou||Bondoukou|+0.0|CI|8.017222|-2.761944|
BDL|KBDL||Bradley International||Windsor Locks|-5.0|US|41.938889|-72.683222|http://www.bradleyairport.com/
BDM|LTBG|Бандирма|Bandirma|Бандирма|Bandirma|+2.0|TR|40.317972|27.977694|
BDN|OPTH||Talhar|Бадин|Badin|-5.0|PK|24.841519|68.838408|
BDO|WICC||Husein Sastranegara|Бандунг|Bandung|+7.0|ID|-6.900625|107.576294|
BDP|VNCG|Бхадрапур|Bhadrapur|Бхадрапур|Bhadrapur|+5.5|NP|26.570278|88.075833|
BDQ|VABO||Vadodara||Vadodara|-5.5|IN|22.336164|73.226289|
BDR|KBDR||Igor I. Sikorsky Mem.||Bridgeport|-5.0|US|41.163472|-73.126167|
BDS|LIBR||Papola Casale|Бриндиси|Brindisi|+1.0|IT|40.657633|17.947033|
BDT|FZFD||Kisangani|Гбадолите|Gbadolite||CD|4.253206|20.975283|
BDU|ENDU|Бордуфос|Bardufoss|Бордуфос|Bardufoss|+1.0|NO|69.055758|18.540356|
BDV|FZRB|Моба|Moba|Моба|Moba||CD|-7.083889|29.738333|
BDW|YBDF||Bedford Downs||Bedford Downs|-8.0|AU|-17.287500|127.466944|
BDX|KBDX||Broadus||Broadus|-7.0|US|45.433325|-105.417213|
BDY|KBDY||State||Bandon|-8.0|US|43.086472|-124.407861|
BDZ||Байндунг|Baindoung|Байндунг|Baindoung|-10.0|PG|-6.333|146.933|
BEA||Берейна|Bereina|Берейна|Bereina|-10.0|PG|-8.633|146.500|
BEB|EGPL||Benbecula||Benbecula|+0.0|GB|57.481111|-7.362778|
BEC|KBEC||Beech|Вичита|Wichita|+0.0|US|37.694475|-97.214989|
BED|KBED||Hanscom Field||Bedford/Hanscom|-5.0|US|42.469953|-71.289030|
BEE|YBGB||Beagle Bay||Beagle Bay|+10.0|AU|-17.016389|122.646111|
BEF|MNBL|Блуфилдс|Bluefields|Блуфилдс|Bluefields|-6.0|NI|11.990961|-83.774086|
BEG|LYBE||Nikola Tesla|Белград|Belgrade|+1.0|RS|44.818444|20.309139|http://www.beg.aero
BEH|KBEH||Ross Field|Бентон Харбор|Benton Harbor|-5.0|US|42.128583|-86.428500|
BEI|HABE|Бейка|Beica|Бейка|Beica|+3.0|ET|9.386389|34.521944|
BEJ|WALK||Kalimaru||Tanjung Redep|+8.0|ID|2.155497|117.432256|
BEK|VIRB||Bareli||Bareli|-5.5|IN|26.217|81.233|
BEL|SBBE||Val De Cans|Белем|Belem|-3.0|BR|-1.379250|-48.476292|
BEM|FEFL|Боссембеле|Bossembele|Боссембеле|Bossembele|+1.0|CF|5.267|17.633|
BEN|HLLB||Benina Intl||Benghazi|+2.0|LY|32.096786|20.269472|
BEO|YPEC||Belmont|Ньюкасл|Newcastle|+7.0|AU|-33.066111|151.646389|
BEP|VOBI|Беллари|Bellary|Беллари|Bellary|+5.5|IN|15.162783|76.882775|
BEQ|EGXH||Honington||Bury St Edmunds|+0.0|GB|52.342611|0.772939|
BER|||Berlin Metropolitan Area|Берлин|Berlin|+1.0|DE|52.517|13.400|
BES|LFRB||Guipavas|Брест|Brest|+1.0|FR|48.447222|-4.421667|
BET|PABE||Bethel Airport||Bethel|-9.0|US|60.778557|-161.837177|
BEU|YBIE||Bedourie||Bedourie|-10.0|AU|-24.346111|139.460278|
BEV|LLBS||Beer Sheba||Beer Sheba|+2.0|IL|31.287003|34.722953|
BEW|FQBR|Бейра|Beira|Бейра|Beira|+2.0|MZ|-19.796419|34.907556|
BEX|EGUB||RAF Station||Benson|+6.0|GB|51.616389|-1.095833|
BEY|OLBA||Rafic Hariri International Airport|Бейрут|Beirut|+2.0|LB|33.820931|35.488389|http://www.beirutairport.gov.lb/indexflash.html
BEZ|NGBR|Беру|Beru|Беру|Beru|+12.0|KI|-1.354722|176.006944|
BFA|KBFA||Bahia Negra||Bahia Negra|+0.0|PY|45.165842|-84.924114|
BFB|KBUR||Blue Fox Bay||Blue Fox Bay|-9.0|US|58.183333333333|-152.13333333333|
BFC|YBMD||Bloomfield||Bloomfield|-10.0|AU|-15.873611|145.329722|
BFD|KBFD||Bradford||Bradford|-6.0|US|41.803068|-78.640121|
BFE|EDLI|Билифельд|Bielefeld|Билефельд|Bielefeld|+1.0|DE|51.964833|8.544833|
BFF|KBFF||Scotts Bluff County||Scottsbluff|+7.0|US|41.874028|-103.595639|
BFG|KBFG||Bullfrog Basin||Bullfrog Basin|-7.0|US|37.545824|-110.713199|
BFH|KBUR||Bacacheri|Куритиба|Curitiba|-2.0|BR|-25.405|-49.231944444444|
BFI|KBFI||Boeing Field/King County International Airport|Сиэттл|Seattle|-8.0|US|47.530000|-122.301972|
BFJ|NFFA|Ба|Ba|Ба|Ba|+12.0|FJ|-17.550|177.667|
BFK|KBFK||Buffalo Municipal Airport||Buffalo|-6.0|US|36.863301|-99.618731|
BFL|KBFL||Meadows Field|Бейкерсфилд|Bakersfield|-8.0|US|35.433861|-119.057667|
BFM|KBFM||Mob Aerospace|Мобайл|Mobile|-6.0|US|30.626778|-88.068083|
BFO|FVCZ||Buffalo Range||Buffalo Range|+2.0|ZW|-21.008083|31.578550|
BFP|KBVI||Beaver Falls||Beaver Falls|-5.0|US|40.772472|-80.391444|
BFQ|||Bahia Pinas||Bahia Pinas|+0.0|PA|7.583|-78.200|
BFR|KBFR||Virgil I Grissom Muni||Bedford|-5.0|US|38.840028|-86.445361|
BFS|EGAA||Aldergrove International Airport||Belfast|+0.0|GB|54.657500|-6.215833|http://www.belfastairport.com
BFT|KARW||County||Beaufort|-5.0|US|32.412166|-80.634354|
BFU|ZSBB|Бенгбу|Bengbu|Бенгбу|Bengbu|+0.0|CN|32.847500|117.320278|
BFV|VTUO||Buri Ram||Buri Ram|+0.0|TH|15.229539|103.253231|
BFW|KBFW||Sidi Belabbes||Sidi Belabbes|+1.0|DZ|47.249028|-91.415583|
BFX|FKKU||Bafoussam||Bafoussam|+1.0|CM|5.536919|10.354583|
BGA|SKBG||Palo Negro||Bucaramanga|-5.0|CO|7.126944|-73.185000|
BGB|FOGB||Booue||Booue|-1.0|GA|-0.100|11.950|
BGC|LPBG|Браганса|Braganca|Браганса|Braganca|+0.0|PT|41.857800|-6.707125|
BGD|KBGD||Borger||Borger|-6.0|US|35.700894|-101.393663|
BGE|KBGE||Decatur County||Bainbridge|-5.0|US|30.971598|-84.636928|
BGF|FEFF||Bangui||Bangui|+1.0|CF|4.398475|18.518786|
BGG|||Bongouanou||Bongouanou|+0.0|CI|6.650|-4.200|
BGH|GQNE||Abbaye|Боге|Boghe|+0.0|MR|16.633|-14.183|
BGI|TBPB||Grantley Adams International||Bridgetown|-4.0|BB|13.074603|-59.492456|http://sunnybarbados.net/BarbadosAirport/
BGJ|BIBF||Borgarfjordur Eystri||Borgarfjordur Eystri|+0.0|IS|65.516389|-13.805000|
BGK||Биг-Крик|Big Creek|Биг-Крик|Big Creek|+6.0|BZ|16.517|-88.400|
BGL|VNBL|Баглунг|Baglung|Баглунг|Baglung|+5.75|NP|28.212816|83.666328|
BGM|KBGM||Greater Binghamton||Binghamton, NY|-5.0|US|42.208556|-75.979722|http://www.binghamtonairport.com
BGN|ETUR||R.A.F.||Brueggen|+1.0|DE|51.200|6.133|
BGO|ENBR||Bergen Airport, Flesland|Берген|Bergen|+1.0|NO|60.293386|5.218142|http://www.avinor.no/English/Airports/Bergen_Airport,_Flesland/
BGP||Бонго|Bongo|Бонго|Bongo|-1.0|GA|-2.200|10.233|
BGQ|PAGQ||Big Lake||Big Lake|-9.0|US|61.536122|-149.813897|
BGR|KBGR||Bangor International Airport|Бангор|Bangor|-5.0|US|44.807444|-68.828139|http://www.flybangor.com
BGS|KBGS||Webb AFB||Big Spring|-6.0|US|32.21444444|-101.52499999|
BGT|KBGT||Bagdad||Bagdad|-7.0|US|34.595853|-113.170195|
BGU|FEFG|Бангассу|Bangassou|Бангассу|Bangassou|+1.0|CF|4.785|22.781|
BGV|||Bento Goncalves||Bento Goncalves|+3.0|BR|-29.167|-51.500|
BGW|ORBI||Al Muthana|Багдад|Baghdad|+3.0|IQ|33.262538|44.234577|
BGX|SBBG||Airport Cmdt. Gustavo Kraemer||Bage|-2.0|BR|-31.390528|-54.112244|
BGY|LIME||Orio al Serio|Бергамо|Bergamo|+1.0|IT|45.673889|9.704166|http://www.sacbo.it/
BGZ|LPBR|Брага|Braga|Брага|Braga|+0.0|PT|41.587058|-8.445139|
BHA|SESV||Bahia De Caraquez||Bahia De Caraquez|-5.0|EC|-0.608111|-80.402683|
BHB|KBHB|Бар Харбор|Bar Harbor|Бар Харбор|Bar Harbor|-5.0|US|44.449769|-68.361565|http://www.bhbairport.com
BHC|KBHC||Bhurban Heliport||Bhurban|-7.0|US|31.713833|-82.393778|
BHD|EGAC||George Best Belfast City||Belfast|+0.0|GB|54.618056|-5.872500|http://www.belfastcityairport.com
BHE|NZWB||Woodbourne Air Station|Бленхайм|Blenheim|+13.0|NZ|-41.518333|173.870278|
BHF|SKCP|Бахья-Купика|Bahia Cupica|Бахья-Купика|Bahia Cupica|+5.0|CO|6.550|-77.333|
BHG|MHBL|Брюс-Лагуна|Brus Laguna|Брюс-Лагуна|Brus Laguna|+6.0|HN|15.735000|-84.542500|
BHH|OEBH|Биша|Bisha|Биша|Bisha|+3.0|SA|19.984350|42.620881|
BHI|SAZB||Comandante||Bahia Blanca|-3.0|AR|-38.724967|-62.169317|
BHJ|VABJ||Rudra Mata|Бхудж|Bhuj|+5.5|IN|23.287828|69.670147|
BHK|UTSB|Бухара|Bukhara|Бухара|Bukhara|-2.0|UZ|39.775000|64.483333|
BHL||Бахиа-Ангелес|Bahia Angeles|Бахиа-Ангелес|Bahia Angeles|+8.0|MX|28.978611|-113.560833|
BHM|KBHM||Birmingham||Birmingham|+0.0|GB|33.563889|-86.752306|
BHN|OYBN|Бейхан|Beihan|Бейхан|Beihan|-3.0|YE|14.781972|45.720083|
BHO|VABP|Бхопал|Bhopal|Бхопал|Bhopal|+5.5|IN|23.287467|77.337375|
BHP|VNBJ|Бхойпур|Bhojpur|Бхойпур|Bhojpur|+5.75|NP|27.147430|87.050819|
BHQ|YBHI||Broken Hill||Broken Hill|-9.5|AU|-32.001389|141.471667|
BHR|VNBP||Bharatpur Airport|Бхаратпур|Bharatpur|+5.75|NP|27.678056|84.429444|
BHS|YBTH||Raglan|Батерст|Bathurst|-10.0|AU|-33.409444|149.651944|
BHT|YBTD||Brighton Downs||Brighton Downs|-10.0|AU|-23.363333|141.562778|
BHU|VABV|Бхавнагар|Bhavnagar|Бхавнагар|Bhavnagar|+5.5|IN|21.752206|72.185181|
BHV|OPBW|Бахавалпур|Bahawalpur|Бахавалпур|Bahawalpur|-5.0|PK|29.348100|71.717981|
BHW|CYYZ||Bhagatanwala Apt|Саргодха|Sargodha|-5.0|PK|32.083611111111|72.671111111111|
BHX|EGBB||Birmingham International Airport||Birmingham|+0.0|GB|52.453856|-1.748028|http://www.bhx.co.uk/
BHY|ZGBH|Бэйхай|Beihai|Бейхай|Beihai|-8.0|CN|21.539444|109.293889|
BIA|LFKB||Poretta|Бастия|Bastia|+1.0|FR|42.550000|9.484722|
BIB|HCMB|Байдоа|Baidoa|Байдоа|Baidoa|-3.0|SO|3.101667|43.626944|
BIC|CYLB|Биг-Крик|Big Creek|Биг-Крик|Big Creek|-9.0|US|57.666666666667|-157.58333333333|
BID|KBID||Block Island||Block Island|-5.0|US|41.168111|-71.577833|
BIE|KBIE||Beatrice||Beatrice|-6.0|US|40.301278|-96.754111|
BIF|KBIF||Biggs Aaf|Эль Пасо|El Paso|-7.0|US|31.849525|-106.380039|
BIG|PABI||Intermediate Field||Big Delta|-9.0|US|63.995160|-145.720025|
BIH|KBIH|Бишоп|Bishop|Бишоп|Bishop|-8.0|US|37.373111|-118.363611|
BII|||Enyu Airfield|Бикини-Атолл|Bikini Atoll|+12.0|MH|11.522500|165.565000|
BIJ|KBIJ||Biliau||Biliau|+10.0|PG|-5.583|146.333|
BIK|WABB||Frans Kaisepo||Biak|+9.0|ID|-1.190017|136.107997|
BIL|KBIL|Биллингс|Billings|Биллингс|Billings|-7.0|US|45.807667|-108.542889|
BIM|MYBS||International||Bimini|+5.0|BS|25.699881|-79.264656|
BIN|OABN|Бамиан|Bamiyan|Бамиан|Bamiyan|-4.5|AF|34.808622|67.818233|
BIO|LEBB||Sondica|Билбао|Bilbao|+1.0|ES|43.301097|-2.910608|
BIP|YBWM||Bulimba||Bulimba|-10.0|AU|-16.883056|143.481389|
BIQ|LFBZ||Biarritz Parme|Биарриц|Biarritz|+1.0|FR|43.468333|-1.531111|http://www.biarritz.aeroport.fr/indexen.html
BIR|VNVT|Биратнагар|Biratnagar|Биратнагар|Biratnagar|+5.75|NP|26.484167|87.264444|
BIS|KBIS|Бисмарк|Bismarck|Бисмарк|Bismarck|-6.0|US|46.772722|-100.745750|
BIT|VNBT|Байтади|Baitadi|Байтади|Baitadi|-5.8|NP|29.465263|80.549156|
BIU|BIBD|Билдудалур|Bildudalur|Билдудалур|Bildudalur|+0.0|IS|65.641389|-23.546111|
BIV|FEFR|Бриа|Bria|Бриа|Bria|+1.0|CF|6.527778|21.989444|
BIW|YBIL||Billiluna||Billiluna|-8.0|AU|-19.564722|127.671944|
BIX|KBIX||Keesler AFB||Biloxi|+0.0|US|30.410425|-88.924433|
BIY|FABE|Бишо|Bisho|Бишо|Bisho|+2.0|ZA|-32.897150|27.279111|
BIZ||Бимин|Bimin|Бимин|Bimin|-10.0|PG|-5.283|142.017|
BJA|DAAE||Bejaia||Bejaia|+1.0|DZ|36.711944|5.069444|
BJB|OIMN||Bojnord||Bojnord|+1.0|BA|37.492958|57.308219|
BJC|KBJC||Jeffco||Broomfield|-7.0|US|39.908806|-105.117194|
BJD|BIBK|Баккафьордур|Bakkafjordur|Баккафьордур|Bakkafjordur|+0.0|IS|66.021944|-14.824444|
BJF|ENBS|Ботсфьорд|Batsfjord|Ботсфьорд|Batsfjord|+1.0|NO|70.600278|29.692500|
BJG||Болаанг|Bolaang|Болаанг|Bolaang|+8.0|ID|0.933|124.167|
BJH|VNBG|Баджханг|Bajhang|Баджханг|Bajhang|-5.8|NP|29.538960|81.185364|
BJI|KBJI||Bemidji||Bemidji|-6.0|US|47.510722|-94.934722|
BJJ|KBJJ||Wayne County|Вустер|Wooster|-5.0|US|40.874833|-81.888250|
BJK|WAPK|Бенджина|Benjina|Бенджина|Benjina|-9.0|ID|-6.066200|134.273928|
BJL|GBYD||Yundum International||Banjul|+0.0|GM|13.337961|-16.652206|
BJM|HBBA||International||Bujumbura|+2.0|BI|-3.324019|29.318519|
BJN||Бахоне|Bajone|Бахоне|Bajone|-2.0|MZ|-17.167|37.950|
BJO|SLBJ|Бермехо|Bermejo|Бермехо|Bermejo|-3.0|AR|-22.773336|-64.312881|
BJP|||Braganca Paulista||Braganca Paulista|+0.0|BR|-4.6333333333333|-39.766666666667|
BJR|HABD|Бахар-Дар|Bahar Dar|Бахар-Дар|Bahar Dar|+3.0|ET|11.608075|37.321644|
BJT|SKBO||Bentota River||Bentota River|+5.5|LK|6.4211111111111|79.998888888889|
BJU|VNBR||Bajura Arpt|Баджура|Bajura|-5.8|NP|29.502|81.669|
BJV|LTFE||Milas Airport|Бодрум|Bodrum|+2.0|TR|37.250611|27.664311|
BJW|WRKB|Баджава|Bajawa|Баджава|Bajawa|-8.0|ID|-8.817|120.983|
BJX|MMLO||Del Bajнo International||Leуn|-6.0|MX|20.993464|-101.480847|
BJY|LYBT||Batajnica|Белград|Belgrade|+1.0|RS|44.935331|20.257506|
BJZ|LEBZ||Talaveral La Real|Бадахос|Badajoz|+1.0|ES|38.891250|-6.821333|
BKA|UUBB|Быково|Bykovo|Москва|Moscow|+3.0|RU|55.617222|38.059999|http://www.bykovo-sky.ru
BKB|VIBK|Биканер|Bikaner|Биканер|Bikaner|-5.5|IN|28.070606|73.207161|
BKC|PABL||Buckland||Buckland|-9.0|US|65.981565|-161.149071|
BKD|KBKD||Stephens County||Breckenridge|-6.0|US|32.718753|-98.891597|
BKE|KBKE||Baker||Baker|-8.0|US|44.837350|-117.809144|
BKF|KBKF||Lake Brooks SPB||Katmai National Park|-9.0|US|58.554843|-155.777388|
BKH|PHBK||Barking Sands PMRF||Kekaha|-10.0|US|22.022774|-159.785059|
BKI|WBKK||Kota-Kinabalu International Airport||Kota-Kinabalu|+8.0|MY|5.937208|116.051181|
BKJ|GUOK|Боке|Boke|Боке|Boke|+0.0|GN|10.965833|-14.281111|
BKK|VTBS||Suvarnabhumi International|Бангкок|Bangkok|+7.0|TH|13.681108|100.747283|
BKL|KBKL||Burke Lakefront||Cleveland|-5.0|US|41.517500|-81.683333|
BKM|WBGQ||Bakalalan||Bakalalan|+7.0|MY|3.988611|115.618889|
BKN|DRRB||Birni Nkoni||Birni Nkoni|-1.0|NE|13.800|5.250|
BKO|GABS||Bamako||Bamako|+0.0|ML|12.533544|-7.949944|
BKP|YBAW||Barkly Downs||Barkly Downs|-10.0|AU|-20.464167|138.471111|
BKQ|YBCK||Blackall||Blackall|-10.0|AU|-24.427778|145.428611|
BKR|FTTK|Бокоро|Bokoro|Бокоро|Bokoro|+1.0|TD|12.385278|17.070833|
BKS|WIPL||Padangkemiling|Бенгкулу|Bengkulu|+7.0|ID|-3.863700|102.339036|
BKT|KBKT||Blackstone AAF||Blackstone|-5.0|US|37.074346|-77.957346|
BKU|FMSV||Betioky||Betioky|+3.0|MG|-23.733|44.389|
BKW|KBKW||Beckley||Beckley|-5.0|US|37.787326|-81.124164|
BKX|KBKX||Brookings||Brookings|-8.0|US|44.304833|-96.816944|
BKY|FZMA|Кавуму|Kavumu||Bukavu|-2.0|CD|-2.308978|28.808803|
BKZ|HTBU|Букоба|Bukoba|Букоба|Bukoba|+3.0|TZ|-1.300|31.800|
BLA|SVBC||Gen J A Anzoategui|Барселона|Barcelona|-4.0|VE|10.107139|-64.689161|
BLB|MPHO|Балбоа|Balboa|Балбоа|Balboa|-5.0|PA|8.914794|-79.599633|
BLC|||Bamenda|Бали|Bali|+1.0|CM|5.894722|10.033333|
BLD|KBVU||Boulder City||Boulder City|-8.0|US|35.947480|-114.861097|
BLE|ESSD||Dala Airport|Борланг|Borlange|+1.0|SE|60.422017|15.515211|http://www.dalaflyget.se/
BLF|KBLF||Princeton||Princeton|-5.0|US|37.295806|-81.207694|
BLG|WBGC||Belaga||Belaga|-8.0|MY|2.636111|113.760556|
BLH|KBLH||Blythe||Blythe|-8.0|US|33.619167|-114.716889|
BLI|KBLI||Bellingham||Bellingham|-8.0|US|48.792694|-122.537528|
BLJ|DABT|Батна|Batna|Батна|Batna|+1.0|DZ|35.759167|6.322500|
BLK|EGNH||Blackpool Airport||Blackpool|+0.0|GB|53.771667|-3.028611|http://www.blackpoolinternational.com
BLL|EKBI|Биллунд|Billund|Биллунд|Billund|+1.0|DK|55.740322|9.151778|http://www.billund-airport.com/
BLM|KBLM||Monmouth Executive Airport||Belmar - Farmingdale|-5.0|US|40.186750|-74.124556|
BLN|YBLA||Benalla||Benalla|-10.0|AU|-36.551944|146.006667|
BLO|BIBL||Blonduos||Blonduos|+0.0|IS|65.645000|-20.287500|
BLP|SPBL|Беллависта|Bellavista|Беллависта|Bellavista|-5.0|PE|-7.060556|-76.582222|
BLQ|LIPE||Guglielmo Marconi|Болонья|Bologna|+1.0|IT|44.535444|11.288667|http://www.bologna-airport.it/
BLR|VOBL||Bangalore International Airport|Бангалор|Bangalore|+5.5|IN|13.198867|77.705472|http://www.bialairport.com/
BLS|YBLL||Bollon||Bollon|-10.0|AU|-28.052500|147.480000|
BLT|YBTR||Blackwater||Blackwater|-10.0|AU|-23.603056|148.806944|
BLU|KBLU||Blue Canyon||Blue Canyon|-5.0|US|39.274972|-120.709750|
BLV|KBLV|Белльвиль|Belleville|Белльвиль|Belleville|-6.0|US|38.545167|-89.835194|
BLW|KLEX||Bellows Field||Waimanalo|+10.0|US|21.35|-157.71666666667|
BLX|LIDB|Беллуно|Belluno|Беллуно|Belluno|+1.0|IT|46.166667|12.245278|
BLY|EIBT|Белмаллет|Belmullet|Белмаллет|Belmullet|+0.0|IE|54.222778|-10.030833|
BLZ|FWCL||Chileka||Blantyre|+2.0|MW|-15.679053|34.974014|
BMA|ESSB||Bromma|Стокгольм|Stockholm|+1.0|SE|59.354372|17.941650|http://www.bromma.lfv.se/
BMB|FZFU|Бумба|Bumba|Бумба|Bumba||CD|2.182778|22.481667|
BMC|KBMC||Brigham City||Brigham City|-7.0|US|41.552389|-112.062222|
BMD|FMML|Бело|Belo|Бело|Belo|+3.0|MG|-19.686667|44.541944|
BME|YBRM|Брум|Broome|Брум|Broome, Western Australia|+9.0|AU|-17.944722|122.231667|
BMF|FEGM|Бакума|Bakouma|Бакума|Bakouma|-1.0|CF|5.694|22.801|
BMG|KBMG||Bloomington||Bloomington|-5.0|US|39.146021|-86.616680|
BMH||Бомай|Bomai|Бомай|Bomai|-10.0|PG|-6.367|144.633|
BMI|KBMI||Central Illinois Regional Airport at Bloomington-Normal||Bloomington/Normal, IL|-6.0|US|40.477111|-88.915917|
BMJ|SYBR|Барамита|Baramita|Барамита|Baramita|+3.0|GY|7.417|-60.500|
BMK|EDWR|Боркум|Borkum|Боркум|Borkum|+1.0|DE|53.595500|6.709167|
BML|KBML|Берлинский муниципальный аэропорт|Berlin Municipal Airport|Берлин|Berlin|-5.0|US|44.575361|-71.175917|
BMM|FOOB|Битам|Bitam|Битам|Bitam|+1.0|GA|2.075638|11.493195|
BMN|ORBB|Бамерни|Bamerny|Бамерни|Bamerny|+3.0|IQ|37.098750|43.266583|
BMO|VYBM|Бамо|Bhamo|Бамо|Bhamo|-6.5|MM|24.269033|97.246153|
BMP|YBPI|Бремптон Айленд|Brampton Island|Бремптон Айленд|Brampton Island|+10.0|AU|-20.803|149.270|
BMQ||Бамбури|Bamburi|Бамбури|Bamburi|+3.0|KE|-3.981944|39.730556|
BMR|EDWZ|Балтрум|Baltrum||Baltrum Island|+1.0|DE|53.726944|7.373055|http://www.baltrum-flug.de
BMS|SNBU||Brumado||Brumado|+3.0|BR|-14.255383|-41.817458|
BMT|KBMT|Бомонт Муни|Beaumont Muni||Beaumont|-6.0|US|30.070204|-94.215097|
BMU|WADB|Бима|Bima|Бима|Bima|+8.0|ID|-8.539647|118.687322|
BMV|VVBM||Phung-Duc||Banmethuot|-7.0|VN|12.668311|108.120272|
BMW|DATM|Борж-Бажи-Мохтар|Bordj Badji Mokhtar|Борж-Бажи-Мохтар|Bordj Badji Mokhtar|+1.0|DZ|21.375000|0.923889|
BMX|PABM||Big Mountain||Big Mountain|-9.0|US|59.361247|-155.258821|
BMY|NWWC||Belep Island||Belep Island|-11.0|NC|-19.720556|163.661111|
BMZ||Баму|Bamu|Баму|Bamu|-10.0|PG|-7.833|143.233|
BNA|KBNA||Nashville International||Nashville, TN|-6.0|US|36.124472|-86.678194|http://www.nashintl.com
BNB|FZGN|Боэнде|Boende|Боэнде|Boende|+1.0|CD|-0.286|20.884|
BNC|FZNP|Бени|Beni|Бени|Beni||CD|0.575000|29.473889|
BND|OIKB|Бандар-Аббас|Bandar Abbas|Бандар-Аббас|Bandar Abbas|+3.5|IR|27.218317|56.377850|
BNE|YBBN||Brisbane International|Брисбан|Brisbane|+10.0|AU|-27.384167|153.117500|http://www.bne.com.au/
BNF|KBNF||Warm Spring Bay SPB||Baranof|-9.0|US|57.088826|-134.833141|
BNG|KBNG||Banning||Banning|-8.0|US|33.922583|-116.850528|
BNH|VDPP||Barnes|Хартфорд|Hartford|-5.0|US|41.766388888889|-72.683333333333|
BNI|DNBE|Бенин-Сити|Benin City|Бенин-Сити|Benin City|+1.0|NG|6.316981|5.599503|
BNK|YBNA||Ballina Byron Gateway|Баллина|Ballina|+10.0|AU|-28.833889|153.562500|
BNL|KBNL||Barnwell Regional||Barnwell, SC|-5.0|US|33.258001|-81.387933|
BNM||Бодинуму|Bodinumu|Бодинуму|Bodinumu|+10.0|PG|-9.133|147.667|
BNN|ENBN||Bronnoy|Броннойзунд|Bronnoysund|+1.0|NO|65.461111|12.217500|
BNO|KBNO||Burns||Burns|-8.0|US|43.591907|-118.955436|
BNP|OPBN|Банну|Bannu|Банну|Bannu|+5.0|PK|32.967|70.533|
BNQ|RPUZ||Baganga||Baganga|-8.0|PH|7.600|126.567|
BNR|DFOB|Банфора|Banfora|Банфора|Banfora|+0.0|BF|10.683|-4.717|
BNS|SVBI|Баринас|Barinas|Баринас|Barinas|-4.0|VE|8.619575|-70.220825|
BNT||Бунди|Bundi|Бунди|Bundi|-10.0|PG|-5.733|145.217|
BNU|SSBL|Блюменау|Blumenau|Блюменау|Blumenau|+3.0|BR|-26.830644|-49.090314|
BNV||Боана|Boana|Боана|Boana|-10.0|PG|-6.417|146.817|
BNW|KBNW||Boone||Boone|-6.0|US|42.049556|-93.847611|
BNX|LQBK|Баня-Лука|Banja Luka|Баня-Лука|Banja Luka|+1.0|BA|44.941444|17.297501|http://www.banjaluka-airport.com/
BNY|AGGB|Беллона|Bellona|Беллона|Bellona|-11.0|SB|-11.302222|159.798056|
BNZ||Банц|Banz|Банц|Banz|-10.0|PG|-5.800|144.600|
BOA|FZAJ|Бома|Boma|Бома|Boma|+1.0|CD|-5.854|13.064|
BOB|NTTB||Motu-mute||Bora Bora|-10.0|PF|-16.444378|-151.751286|
BOC|MPBO||Bocas Del Toro||Bocas Del Toro|-5.0|PA|9.340853|-82.250842|
BOD|LFBD||Mйrignac|Бордо|Bordeaux|+1.0|FR|44.828611|-0.715278|
BOE|FCOB|Бунджи|Boundji|Бунджи|Boundji|-1.0|CG|-1.033|15.383|
BOF|KBOF||Bolling AFB||Washington|-5.0|CA|38.842891|-77.016087|
BOG|SKBO||Eldorado International|Богота|Bogota|-5.0|CO|4.703056|-74.138333|http://www.aerocivil.gov.co/plan%20maestro/index.htm
BOH|EGHH||Bournemouth International||Bournemouth|+0.0|GB|50.780000|-1.842500|http://www.flybournemouth.com
BOI|KBOI||Boise Air Terminal/Gowen Field||Boise, ID|-7.0|US|43.564361|-116.222861|
BOJ|LBBG||Bourgas|Бургас|Bourgas|+2.0|BG|42.569583|27.515236|http://www.bourgas-airport.com/
BOK|KBOK||Brookings State||Brookings|-8.0|US|42.074556|-124.290094|
BOL|EGQB||Bally Kelly||Bally Kelly|+0.0|GB|55.059999|-7.015833|
BOM|VABB||Chhatrapati Shivaji International||Mumbai|+5.5|IN|19.088686|72.867919|http://www.csia.in
BON|TNCB||Flamingo International||Kralendijk|-4.0|AN|12.131044|-68.268511|
BOO|ENBO|Бодо|Bodo|Бодо|Bodo|+1.0|NO|67.269167|14.365278|
BOP|FEFO|Буар|Bouar|Буар|Bouar|+1.0|CF|5.958|15.637|
BOQ||Боку|Boku|Боку|Boku|-10.0|PG|-6.533|155.333|
BOR|LFSQ||Fontaine|Белфорт|Belfort|+1.0|FR|47.655556|7.010833|
BOS|KBOS||Logan International|Бостон|Boston|-5.0|US|42.362972|-71.006417|http://www.massport.com
BOT|||Boset||Boset|+0.0|PG|-7.233|141.083|
BOU|LFLD|Борже|Bourges|Борже|Bourges|+1.0|FR|47.064453|2.378953|
BOV||Боанг|Boang|Боанг|Boang|-10.0|PG|-3.383|153.267|
BOW|KBOW||Bartow||Bartow|-5.0|US|27.943361|-81.783417|
BOX|YBRL||Borroloola||Borroloola|-9.5|AU|-16.075278|136.302222|
BOY|DFOO|Борго|Borgo||Bobo Dioulasso|+0.0|BF|11.160056|-4.330969|
BOZ|FEGZ|Бозум|Bozoum|Бозум|Bozoum|-1.0|CF|6.344167|16.321943|
BPA|EGEP||Grumman||Bethpage|-5.0|US|40.75|-73.483333333333|
BPB||Бориди|Boridi|Бориди|Boridi|+10.0|PG|-9.133|147.533|
BPC|FKKV||Bamenda||Bamenda|+1.0|CM|6.039239|10.122639|
BPD||Бапи|Bapi|Бапи|Bapi|-10.0|PG|-7.733|147.017|
BPE|VYBG|Баган|Bagan|Баган|Bagan||CF|5.9|16.466666666667|
BPF|AGBT||Batuna Aerodrome||Batuna|+0.0|SB|-8.561667|158.119167|
BPG|SBBW||Barra Do Garcas||Barra Do Garcas|-3.0|BR|-15.861344|-52.388894|
BPH|RPMF|Бислиг|Bislig|Бислиг|Bislig|-8.0|PH|8.195950|126.321597|
BPI|KBPI||Big Piney-marbleton||Big Piney|-7.0|US|42.585070|-110.111153|
BPK|KBPK||Biangabip||Biangabip|+0.0|PG|36.368942|-92.470528|
BPN|WALL||Sepingan|Баликпапан|Balikpapan|+8.0|ID|-1.268272|116.894478|
BPS|SBPS|Порто Сегуро|Porto Seguro|Порто Сегуро|Porto Seguro|-3.0|BR|-16.438638|-39.080917|
BPT|KBPT||Jefferson County||Beaumont|-6.0|US|29.950833|-94.020694|
BPU||Беппу|Beppu|Беппу|Beppu|+9.0|JP|33.300|131.533|
BPX|ZUBD||Qamdo Bangda||Bangda|+8.0|CN|30.553611|97.108333|
BPY|FMNQ|Бесалампи|Besalampy|Бесалампи|Besalampy|+3.0|MG|-16.741945|44.481388|
BQA|RPUR|Балер|Baler|Балер|Baler|+8.0|PH|15.729836|121.500133|
BQB|VOML||Bussellton||Bussellton|+8.0|AU|-33.6925|115.39527777778|
BQE|GGBU|Бубаку|Bubaque|Бубаку|Bubaque|+0.0|GW|11.297500|-15.838056|
BQH|EGKB||London Biggin Hill||Biggin Hill|+0.0|GB|51.330833|0.032500|http://www.bigginhillairport.com
BQI|KPBI||Bagani||Bagani||ML|11.4|-7.85|
BQK|KBQK||Glynco Jetport||Brunswick|-5.0|US|31.259034|-81.466316|
BQL|YBOU||Boulia||Boulia|-10.0|AU|-22.913333|139.899722|
BQN|TJBQ||Borinquen||Aguadilla|-4.0|PR|18.494861|-67.129444|
BQO|DIBN||Bouna||Bouna|+0.0|CI|9.277500|-3.025278|
BQQ|SNBX||Barra||Barra|+0.0|GB|-11.080767|-43.147494|
BQS|UHBB|Игнатьево|Ignatievo|Благовещенск|Blagoveschensk|+9.0|RU|50.425394|127.412478|
BQT|UMBB|Брест|Brest|Брест|Brest|+2.0|BY|52.108334|23.898056|
BQU|TVSB||J.F. Mitchell||Bequia||VC|12.988444|-61.262033|
BQV|KBQV||Bartlett SPB||Gustavus|-9.0|US|58.455208|-135.885170|
BQW|YBGO||Balgo Hills||Balgo Hills|-8.0|AU|-20.148333|127.973333|
BRA|SNBR||Barreiras||Barreiras|+3.0|BR|-12.078892|-45.008994|
BRB|SBRR||Barreirinhas||Barreirinhas|+3.0|BR|-12.079722|-45.010000|
BRC|SAZS||International||San Carlos DeBariloche|+3.0|AR|-41.151172|-71.157542|
BRD|KBRD||Brainerd Lakes Regional||Brainerd, MN|-6.0|US|46.401750|-94.135583|
BRE|EDDW|Бремен|Bremen|Бремен|Bremen|+1.0|DE|53.047500|8.786667|http://www.airport-bremen.de
BRF|||Bradford||Bradford|+0.0|GB|51|-3.1833333333333|
BRG|HEBA||Municipal||Whitesburg|+5.0|US|37.116666666667|-82.816666666667|
BRH||Брахман|Brahman|Брахман|Brahman|+10.0|PG|-5.733|145.367|
BRI|LIBD||Palese|Бари|Bari|+1.0|IT|41.138856|16.760594|http://www.seap-puglia.it/
BRJ|||Bright||Bright|+11.0|AU|-36.733|146.967|
BRK|YBKE||Bourke||Bourke|-10.0|AU|-30.039167|145.951667|
BRL|KBRL||Burlington||Burlington|-5.0|US|40.783225|-91.125506|
BRM|SVBM|Баркисимето|Barquisimeto|Баркисимето|Barquisimeto|-4.0|VE|10.042747|-69.358619|
BRN|LSZB||Belp|Берне|Berne|+1.0|CH|46.914100|7.497153|
BRO|KBRO||South Padre Is. Intl||Brownsville|-6.0|US|25.906833|-97.425833|
BRP||Биару|Biaru|Биару|Biaru|-10.0|PG|-7.667|146.350|
BRQ|LKTB||Turany|Брно|Brno|+1.0|CZ|49.151269|16.694433|http://www.airport-brno.cz
BRR|EGPR|Норт Бэй|North Bay||Barra|+0.0|GB|57.022778|-7.443056|
BRS|EGGD||Bristol|Бристоль|Bristol|+0.0|GB|51.382669|-2.719089|http://www.bristolairport.co.uk
BRT|YBTI||Bathurst Island||Bathurst Island|+9.5|AU|-11.769167|130.619722|
BRU|EBBR|Аэропорт Брюсселя|Brussels Airport|Брюссель|Brussels|+1.0|BE|50.901389|4.484444|
BRV|EDWB|Бременхавен|Bremerhaven|Бременхавен|Bremerhaven|+1.0|DE|53.507081|8.572878|
BRW|PABR||Wiley Post/W.Rogers M||Barrow|-9.0|US|71.284889|-156.768583|
BRX|MDBH|Барахона|Barahona|Барахона|Barahona|-4.0|DO|18.251464|-71.120400|
BRY|KBRY||Samuels Field||Bardstown, KY|-5.0|US|37.814333|-85.499639|
BRZ|||Borotou||Borotou|+0.0|CI|8.733|-7.500|
BSA|HCMF|Боссасо|Bossaso|Боссасо|Bossaso|+3.0|SO|11.275278|49.149444|
BSB|SBBR||Presidente Juscelino Kubitschek|Бразилия|Brasilia|-2.0|BR|-15.871100|-47.918625|
BSC|SKBS|Бахья-Солано|Bahia Solano|Бахья-Солано|Bahia Solano|+5.0|CO|6.202936|-77.394800|
BSD|ZPBS|Баошань|Baoshan|Баошань|Baoshan|-8.0|CN|25.051667|99.168056|
BSE|WBGN|Семантан|Sematan|Семантан|Sematan|-8.0|MY|1.813611|109.762778|
BSF|PHSF||Bradshaw AAF||Pohakuloa|+2.0|FI|19.760013|-155.553766|
BSG|FGBT|Бата|Bata|Бата|Bata|-1.0|GQ|1.905469|9.805681|
BSH|EGKA||Brighton||Brighton|+0.0|GB|50.835556|-0.297222|
BSI|WBKN||Blairsville||Blairsville|-5.0|US|40.433333333333|-79.266666666667|
BSJ|YBNS||Bairnsdale||Bairnsdale|+11.0|AU|-37.887500|147.567778|
BSK|DAUB|Бискра|Biskra|Бискра|Biskra|+1.0|DZ|34.801667|5.741667|
BSL|LFSB||Euroairport Basel Mulhouse Freiburg||Mulhouse/basel|+1.0|CH|47.58999999|7.52999999|http://www.euroairport.com
BSM|OINJ||Bishe-kola||Bishe-kola|+3.5|IR|36.655144|52.349594|
BSN|FEFS|Боссанга|Bossangoa|Боссанга|Bossangoa|+1.0|CF|6.492|17.429|
BSO|RPUO|Баско|Basco|Баско|Basco|+8.0|PH|20.451322|121.979883|
BSP||Бенсбах|Bensbach|Бенсбах|Bensbach|+10.0|PG|-8.850|141.250|
BSQ|KBSQ||Bisbee Municipal Arpt||Bisbee|-7.0|US|31.363990|-109.883129|
BSR|ORMM||International||Basra|+3.5|IQ|30.549068|47.662142|
BSS|SNBS||Balsas||Balsas|+3.0|BR|-7.526033|-46.053275|
BST|OABT|Бост|Bost|Бост|Bost|-4.5|AF|31.559017|64.364099|
BSU|FZEN|Базанкусу|Basankusu|Базанкусу|Basankusu|-1.0|ZR|1.224722|19.788889|
BSV|||Besakoa||Besakoa|-10.0|PG|-7.241|141.092|
BSW|KBSW||Boswell Bay||Boswell Bay|-9.0|US|60.423064|-146.145909|
BSX|VYPN|Бассейн|Bassein|Бассейн|Bassein|-6.5|MM|16.815233|94.779911|
BSY|HCMD|Бардера|Bardera|Бардера|Bardera|-3.0|SO|2.330556|42.311667|
BSZ|KIAH||Bartletts||Bartletts|-9.0|US|58.266666666667|-157.48333333333|
BTA|FKKO||Yaoundй||Yaoundй|+1.0|CM|4.548611|13.726111|
BTB|FCOT|Бету|Betou|Бету|Betou|-1.0|CG|3.050|18.500|
BTC|VCCB||Batticaloa||Batticaloa|+5.5|LK|7.705756|81.678783|
BTD|YBRU||Brunette Downs||Brunette Downs|-9.5|AU|-18.635556|135.939444|
BTE|GFBN|Бонте|Bonthe|Бонте|Bonthe|+0.0|SL|7.532222|-12.518611|
BTF|KBTF||Salt Lake Skypark||Bountiful|-7.0|US|40.869389|-111.927161|
BTG|FEGF|Батангафо|Batangafo|Батангафо|Batangafo|-1.0|CF|7.314167|18.308889|
BTH|WIDD||Hang Nadim||Batam|+8.0|ID|1.121028|104.118753|
BTI|PABU||Barter Island||Barter Island|-9.0|US|70.172778|-146.836111|
BTJ|WITT||Sultan Lskandarmuda Airport|Банда Асе|Banda Aceh|+7.0|ID|5.523522|95.420372|http://www.angkasapura2.co.id/
BTK|UIBB|Братск|Bratsk|Братск|Bratsk|+8.0|RU|56.370556|101.698331|
BTL|KBTL||WK Kellogg Regional||Battle Creek|-5.0|US|42.307278|-85.251480|
BTM|KBTM||Bert Mooney Airport||Butte, (MT)|-7.0|US|45.954806|-112.497472|
BTN|KBBP||Bennettsville||Bennettsville|-5.0|US|34.621709|-79.734359|
BTO||Ботопасье|Botopasie|Ботопасье|Botopasie|+3.0|SR|4.217|-55.450|
BTP|KBTP||Butler County - Kenny Scholter Field||Butler|-6.0|US|40.776583|-79.951083|
BTQ|HRYI|Бутаре|Butare|Бутаре|Butare|-2.0|RW|-2.595833|29.736667|
BTR|KBTR||Ryan|Батон Руж|Baton Rouge|-6.0|US|30.532906|-91.149877|
BTS|LZIB||M. R. Љtefбnika|Братислава|Bratislava|+1.0|SK|48.170167|17.212667|http://www.airportbratislava.sk
BTT|PABT||Bettles||Bettles|-9.0|US|66.913944|-151.529056|
BTU|WBGB||Bintulu|Бинтулу|Bintulu|+8.0|MY|3.123850|113.020472|
BTV|KBTV||Burlington International||Burlington|-5.0|US|44.471861|-73.153278|
BTW|WAOC|Бату-Личин|Batu Licin|Бату-Личин|Batu Licin|+8.0|ID|-3.412408|115.995136|
BTX|YBEO||Betoota||Betoota|-10.0|AU|-25.695000|140.736667|
BTY|KBTY||Beatty||Beatty|-8.0|US|36.861057|-116.787004|
BTZ|LTBE||Bursa Airport|Бурса|Bursa|+2.0|TR|40.232500|29.009444|
BUA|AYBK||Buka||Buka|-10.0|PG|-5.422317|154.672667|
BUB|KBUB||Municipal||Burwell|-6.0|US|41.776694|-99.149750|
BUC|YBKT||Burketown||Burketown|-10.0|AU|-17.748611|139.534444|
BUD|LHBP||Ferihegy|Будапешт|Budapest|+1.0|HU|47.436933|19.255592|http://www.bud.hu
BUG|FNBG||Gen V Deslandes|Бенгела|Benguela|+1.0|AO|-12.609025|13.403711|
BUI|WAJB|Бокондини|Bokondini|Бокондини|Bokondini|+9.0|ID|-3.700|138.633|
BUJ|DAAD||Ain Eddis||Boussaada|+1.0|DZ|35.331389|4.204444|
BUK|OYBQ|Альбук|Albuq|Альбук|Albuq|+3.0|YE|15.833|43.767|
BUL||Булоло|Bulolo|Булоло|Bulolo|-10.0|PG|-7.217|146.633|
BUM|KBUM||Butler||Butler|-6.0|US|38.289770|-94.340127|
BUN|SKBU|Буэнавентура|Buenaventura|Буэнавентура|Buenaventura|-5.0|CO|3.819592|-76.989625|
BUO|HCMV|Бурао|Burao|Бурао|Burao|+3.0|ET|9.530000|45.556944|
BUP|VIBT|Бхатинда|Bhatinda|Бхатинда|Bhatinda|-5.5|IN|30.270139|74.755772|
BUQ|FVBU|Булавайо|Bulawayo|Булауайо|Bulawayo|+2.0|ZW|-20.017431|28.617869|
BUR|KBUR||Bob Hope|Бурбанк|Burbank|-8.0|US|34.200667|-118.358667|http://www.bobhopeairport.com
BUS|UGSB|Батуми|Batumi|Батуми|Batumi|+3.0|GE|41.610278|41.599694|
BUT||Бертонвуд|Burtonwood|Бертонвуд|Burtonwood|+0.0|GB|53.400|-2.633|
BUU|||Buyo||Buyo|+0.0|CI|6.267|-7.050|
BUV|SUBU|Белла-Юнион|Bella Union|Белла-Юнион|Bella Union|-3.0|UY|-30.319167|-57.559444|
BUW|WAWB||Baubau||Baubau|+8.0|ID|-5.486875|122.569047|
BUX|FZKA|Буниа|Bunia|Буниа|Bunia||CD|1.565719|30.220833|
BUY|YBUN|Банбери|Bunbury|Банбери|Bunbury|+8.0|AU|-33.378332|115.676667|
BUZ|OIBB|Бушехр|Bushehr|Бушехр|Bushehr|+3.5|IR|28.944811|50.834637|
BVA|LFOB||Beauvais-Tille|Париж|Paris|+1.0|FR|49.454444|2.112778|http://www.aeroportbeauvais.com/
BVB|SBBV||Boa Vista||Boa Vista|-4.0|BR|2.846311|-60.690069|
BVC|GVBA||Rabil||Boa Vista|-1.0|CV|16.136531|-22.888897|
BVD|NTAA||Sea Port||Beaver Inlet|-10.0|US|53.733333333333|-166.31666666667|
BVE|LFBV||Laroche|Брив-ла-Гайард|Brive-La-Gaillarde|+1.0|FR|45.149583|1.474364|
BVF|NFNU||Dama|Буа|Bua|+12.0|FJ|-16.800|178.617|
BVG|ENBV|Берлевог|Berlevag|Берлевог|Berlevag|+1.0|NO|70.871389|29.034167|
BVH|SBVH||Vilhena||Vilhena|+4.0|BR|-12.694375|-60.098269|
BVI|YBDV||Birdsville|Бирдсвилл|Birdsville, Queensland|+10.0|AU|-25.897500|139.347500|http://www.birdsville.com
BVK|SLHJ||Huacaraje||Huacaraje|+0.0|BO|-13.533|-63.800|
BVL|SLBU||Baures||Baures|+0.0|BO|-13.583|-63.583|
BVM|SNBL|Бельмонте|Belmonte|Бельмонте|Belmonte|-3.0|BR|-15.871694|-38.871917|
BVO|KBVO||Bartlesville||Bartlesville|-6.0|US|36.764249|-96.011201|
BVP||Боловип|Bolovip|Боловип|Bolovip|-10.0|PG|-5.350|141.650|
BVR|GVBR||Esperadinha||Brava|-5.0|US|14.844|-24.711|
BVS|SNVS||Breves||Breves|+3.0|BR|-1.636531|-50.443614|
BVU|PABG||Beluga||Beluga|-8.0|US|61.172219|-151.043897|
BVW|YBTV||Batavia Downs||Batavia Downs|-10.0|AU|-12.659167|142.674722|
BVX|KBVX||Municipal||Batesville|-5.0|US|35.726222|-91.647444|
BVY|KBVY||Beverly Municiple Airport||Beverly|-5.0|US|42.584141|-70.916144|http://www.beverlyairport.com
BVZ|YBYS||Beverley Springs||Beverley Springs|-8.0|AU|-16.733611|125.439444|
BWA|VNBW|Бхайрава|Bhairawa|Бхайрава|Bhairawa|+5.75|NP|27.507222|83.418056|
BWB|YBWX||Barrow Island||Barrow Island|-8.0|AU|-20.864444|115.406111|
BWC|KBWC||Brawley||Brawley|-8.0|US|32.992944|-115.516889|
BWD|KBWD||Brownwood||Brownwood|-6.0|US|31.793611|-98.956500|
BWE|EDVE|Брауншвайг|Braunschweig|Брауншвайг|Braunschweig|+1.0|DE|52.319167|10.556111|http://www.flughafen-braunschweig-wolfsburg.de
BWF|EGNL||Walney Island||Barrow-In-Furness|+0.0|GB|54.131167|-3.263667|
BWG|KBWG||Warren County||Bowling Green|-6.0|US|36.964528|-86.419667|
BWH|WMKB|Баттерворт|Butterworth|Баттерворт|Butterworth|+8.0|MY|5.465917|100.391167|
BWI|KBWI||Baltimore/Washington International Thurgood Marshall Airport||Baltimore/Washington|-5.0|US|39.175361|-76.668333|http://www.bwiairport.com
BWJ||Баван|Bawan|Баван|Bawan|-10.0|PG|-6.400|146.900|
BWK|LDSB|Бол|Bol|Бол|Bol|+1.0|HR|43.285719|16.679718|
BWL|KBWL||Blackwell||Blackwell|-6.0|US|36.795865|-97.316988|
BWM|KBPP||Bowman||Bowman|-7.0|US|46.186991|-103.428081|
BWN|WBSB||Bandar Seri Begwan International Airport|Бандар Сери Бегаван|Bandar Seri Begawan|+8.0|BN|4.944200|114.928353|
BWO|UWSB|Балаково|Balakovo|Балаково|Balakovo|-2.0|RU|51.858333|47.745556|
BWP|||Bewani||Bewani|-10.0|PG|-3.017|141.150|
BWQ|YBRW||Brewarrina||Brewarrina|-10.0|AU|-29.973889|146.816667|
BWS|KBWS||Blaine||Blaine|-8.0|US|48.990059|-122.732369|
BWT|YWYY||Burnie Wynyard||Burnie|-10.0|AU|-40.998889|145.731111|
BWU|YSBK||Sydney Bankstown|Сидней|Sydney|+11.0|AU|-33.924444|150.988333|http:// www.bankstownairport.com.au
BWY|||Bentwaters St|Вудбридж|Woodbridge|+0.0|GB|52.1|1.3166666666667|
BXA|KBXA||George R Carr||Bogalusa|-6.0|US|30.813686|-89.864964|
BXB|WASO|Бабо|Babo|Бабо|Babo|-9.0|ID|-2.532242|133.438894|
BXC|LEMG||Boxborough||Boxborough|-5.0|US|42.483611111111|-71.535277777778|
BXD|WAKE|Баде|Bade|Баде|Bade|-9.0|ID|-7.150|139.567|
BXE|GOTB|Бакель|Bakel|Бакель|Bakel|+0.0|SN|14.847256|-12.468264|
BXF|VOML||Belburn||Belburn|+1.0|NO|64.233333333333|12.5|
BXG|KBXG|Бендиго|Bendigo|Бендиго|Bendigo|+10.0|AU|33.041289|-82.002690|
BXH|UAAH|Балхаш|Balhash|Балхаш|Balhash|-2.0|KZ|46.893333|75.005000|
BXI|DIBI||Boundiali||Boundiali|+0.0|CI|9.533|-6.467|
BXJ|KPBI|Бурундай|Burundai|Бурундай|Burundai|+0.0|KZ|45.083333333333|74.016666666667|
BXK|KBXK||Buckeye Municipal||Buckeye|-7.0|US|33.420417|-112.686181|
BXL||Блю-Лагун|Blue Lagoon|Блю-Лагун|Blue Lagoon|-12.0|FJ|-16.944|177.369|
BXM||Батом|Batom|Батом|Batom|-9.0|ID|-2.283|139.600|
BXN|LTBV||Imsik Airport|Бодрум|Bodrum|+2.0|TR|37.140144|27.669717|
BXO|SNBG|Буокс|Buochs|Буокс|Buochs|+0.0|GW|11.883333333333|-15.65|
BXR|OIKM||Bam||Bam|+3.5|IR|29.084169|58.450042|
BXS|KBXS||Borrego Springs||Borrego Springs|-8.0|US|33.259028|-116.320972|
BXT|WRLC|Бонтанг|Bontang|Бонтанг|Bontang|-8.0|ID|0.117|117.467|
BXU|RPME|Бутуан|Butuan|Бутуань|Butuan|-8.0|PH|8.951322|125.477972|
BXV|BIBV||Breiddalsvik||Breiddalsvik|+0.0|IS|64.789999|-14.022778|
BXX|||Borama International||Borama|+3.0|SO|9.933|43.150|
BXZ|LEMG||Bunsil||Bunsil|+0.0|PG|0|0|
BYA|KBYA||Boundary||Boundary|-9.0|US|64.078303|-141.113375|
BYB||Дибаа|Dibaa|Дибаа|Dibaa|+4.0|AE|25.600|56.233|
BYC|SLYA|Якуйба|Yacuiba|Якуйба|Yacuiba|-4.0|BO|-21.960925|-63.651669|
BYD|OYBI|Бейда|Beidah|Бейда|Beidah|+3.0|YE|14.133|46.550|
BYG|KBYG||Municipal||Buffalo|-6.0|US|44.381085|-106.721790|
BYH|KBYH||Blytheville AFB||Blytheville|-6.0|US|35.964333|-89.943944|
BYI|KBYI||Rupert||Rupert|-7.0|US|42.542604|-113.771544|
BYK|DIBK||Bouake||Bouake|+0.0|CI|7.738800|-5.073667|
BYL||Белла-Елла|Bella Yella|Белла-Елла|Bella Yella|+0.0|LR|7.367|-9.983|
BYM|MUBY||C.M. de Cespedes|Байамо|Bayamo|-5.0|CU|20.396331|-76.621494|
BYN|ZMBH||Bayankhongor||Bayankhongor|-8.0|MN|46.163311|100.704086|
BYO|||Bonito Airport||Bonito|+0.0|BR|-4.55|-38.65|
BYQ|WALV|Бунью|Bunyu|Бунью|Bunyu|+8.0|ID|3.455725|117.867372|
BYR|EKLS||Laeso Airport||Laeso Island|+0.0|DK|57.277228|11.000083|
BYS|KBYS||Bicycle Lake AAF||Fort Irwin|-8.0|US|35.280530|-116.630029|
BYT|EIBN|Бантри|Bantry|Бантри|Bantry|+0.0|IE|51.668889|-9.484444|
BYU|EDQD||Bindlacher-Berg|Байройт|Bayreuth|+1.0|DE|49.984428|11.638569|
BYW|KBYW||Blakely Island||Blakely Island|-8.0|US|48.578992|-122.826291|
BYX|||Baniyala||Baniyala|-9.5|AU|-13.198056|136.226944|
BZA|MNBZ|Сан-Педро|San Pedro|Бонанса|Bonanza|+6.0|NI|13.950|-84.600|
BZB|||Bazaruto Island||Bazaruto Island|+0.0|MZ|-21.542778|35.472778|
BZC|SBBZ|Бузиос|Buzios|Бузиос|Buzios|-2.0|BR|-22.770972|-41.962861|
BZD|YBRN||Balranald||Balranald|-10.0|AU|-34.623611|143.578333|
BZE|MZBZ||Philip S.W.Goldson Int||Belize City|-6.0|BZ|17.539144|-88.308203|
BZG|EPBY||Bydgoszcz I. J. Paderewski Airport|Быдгощ|Bydgoszcz|+1.0|PL|53.096803|17.977669|http://www.plb.pl
BZH|||Bumi Hills||Bumi Hills|+0.0|ZW|-17.483333333333|28.516666666667|
BZI|LTBF|Балыкесир|Balikesir|Балыкесир|Balikesir|+2.0|TR|39.619258|27.925958|
BZK|UUBP|Брянск|Briansk|Брянск|Briansk|+3.0|RU|53.214194|34.176447|
BZL|VGBR|Барисал|Barisal|Барисал|Barisal|-6.0|BD|22.801031|90.301164|
BZM|EHWO|Вонсдрехт|Woensdrecht|Берген Оп Зоом|Bergen Op Zoom|+1.0|NL|51.449092|4.342031|
BZN|KBZN||Gallatin Field||Bozeman|-7.0|US|45.777570|-111.152022|http://www.gallatinfield.com/
BZO|LIPB|Болзано|Bolzano|Болзано|Bolzano|+1.0|IT|46.460194|11.326383|http://www.abd-airport.it
BZP|YBIZ||Bizant||Bizant|-10.0|AU|-14.740278|144.119167|
BZR|LFMU||Beziers Vias|Безьер|Beziers|+1.0|FR|43.323428|3.353397|http://www.beziers.aeroport.fr/
BZS|KBZS||Buzzards Pt S||Washington|+5.0|US|38.86333333|-77.01333333|
BZT|EGAC||Hinkles Ferry||Brazoria|-6.0|US|29.05|-95.566666666667|
BZU|FZKJ||Buta||Buta||CD|2.818347|24.793706|
BZV|FCBB||Maya Maya||Brazzaville|+1.0|CG|-4.251700|15.253031|
BZY|LUBL|Бельцы|Beltsy|Бельцы|Beltsy|+2.0|MD|47.838114|27.781475|
BZZ|EGVN||Raf Brize Norton|Оксфорд|Oxford|+0.0|GB|51.749964|-1.583617|
CAA|MHCA|Катакамас|Catacamas|Катакамас|Catacamas|+6.0|HN|14.917|-85.900|
CAB|FNCA|Кабинда|Cabinda|Кабинда|Cabinda|+1.0|AO|-5.596992|12.188353|
CAC|SBCA||Cascavel||Cascavel|+3.0|BR|-25.000339|-53.500764|
CAD|KCAD||Cadillac||Cadillac|-5.0|US|44.275333|-85.418917|
CAE|KCAE||Metropolitan Airport||Columbia, SC|-5.0|US|33.938833|-81.119528|http://www.columbiaairport.com/
CAF|SWCA||Carauari||Carauari|+4.0|BR|-4.871519|-66.897458|
CAG|LIEE||Elmas|Кальяри|Cagliari|+1.0|IT|39.251469|9.054283|
CAH|VVCM|Ка-Мау|Ca Mau|Ка-Мау|Ca Mau|-7.0|VN|9.188049|105.174721|
CAI|HECA||Cairo International|Каир|Cairo|+2.0|EG|30.121944|31.405556|http://www.cairo-airport.com/
CAJ|SVCN|Канайма|Canaima|Канайма|Canaima|+4.0|VE|6.231989|-62.854433|
CAK|KCAK||Akron/canton Regional||Akron/Canton, OH|-5.0|US|40.916083|-81.442194|http://www.akroncantonairport.com/
CAL|EGEC||Machrihanish|Кемпбелтаун|Campbeltown|+0.0|GB|55.437222|-5.686389|
CAM|SLCA|Камири|Camiri|Камири|Camiri|-4.0|BO|-20.006111|-63.527778|
CAN|ZGGG||New Baiyun|Гуанчжоу|Guangzhou|+8.0|CN|23.392436|113.298786|
CAO|KCAO||Clayton||Clayton|-7.0|US|36.446152|-103.149969|
CAP|MTCH|Кеп-Гаитиен|Cap Haitien|Кеп-Гаитиен|Cap Haitien|-5.0|HT|19.732989|-72.194739|
CAQ|SKCU|Каукасиа|Caucasia|Каукасиа|Caucasia|+5.0|CO|7.968469|-75.198461|
CAR|KCAR||Municipal||Caribou|-5.0|US|46.871500|-68.017917|
CAS|GMMC||Anfa|Касабланка|Casablanca|+0.0|MA|33.556981|-7.660492|
CAT|MYCB||New Bight|Кэт-Айленд|Cat Island|-5.0|BS|24.315292|-75.452331|
CAU|SNRU||Caruaru||Caruaru|+3.0|BR|-8.282392|-36.013503|
CAV|FNCZ|Казомбо|Cazombo|Казомбо|Cazombo|-1.0|AO|-11.893056|22.916389|
CAW|SBCP||Bartolomeu Lisandro||Campos|-2.0|BR|-21.698333|-41.301669|
CAX|EGNC|Карлисл|Carlisle|Карлисл|Carlisle|+0.0|GB|54.937500|-2.809167|http://www.carlisleairport.co.uk
CAY|SOCA||Rochambeau||Cayenne|-3.0|GF|4.819722|-52.361944|
CAZ|YCBA||Cobar||Cobar|-10.0|AU|-31.538333|145.793889|
CBA|MMVA||Corner Bay||Corner Bay|-9.0|US|57.716666666667|-135.2|
CBB|SLCB||J Wilsterman|Качабамба|Cochabamba|-4.0|BO|-17.421058|-66.177114|
CBC|||Cherrabun||Cherrabun|-8.0|AU|-18.917|125.550|
CBD|VOCX|Кар-Никобар|Car Nicobar|Кар-Никобар|Car Nicobar|-5.5|IN|9.152508|92.819628|
CBE|KCBE||Wiley Ford||Cumberland|-5.0|US|39.615250|-78.761889|
CBF|KCBF||Municipal||Council Bluffs|-6.0|US|41.260120|-95.758653|
CBG|EGSC|Кембридж|Cambridge|Кембрдидж|Cambridge|+0.0|GB|52.205000|0.175000|http://www.cambridgecityairport.com
CBH|DAOR||Leger||Bechar|+1.0|DZ|31.650569|-2.253153|
CBI|YCBN||Cape Barren Island||Cape Barren Island|+0.0|AU|-40.389722|148.015833|
CBJ|MDCR|Кабо-Рожо|Cabo Rojo|Кабо-Рожо|Cabo Rojo|-4.0|DO|17.928981|-71.644769|
CBK|KCBK||Municipal||Colby|-6.0|US|39.427444|-101.046611|
CBL|SVCB|Сьюдад-Боливар|Ciudad Bolivar|Сьюдад-Боливар|Ciudad Bolivar|-4.0|VE|8.121898|-63.537353|
CBM|KCBM||Columbus AFB||Columbus|-5.0|US|33.645166|-88.445924|
CBN|WICD||Penggung|Чиребон|Cirebon|+7.0|ID|-6.756144|108.539672|
CBO|RPMC||Awang|Котабато|Cotabato|-8.0|PH|7.165242|124.209619|
CBP|LPCO|Коимбра|Coimbra|Коимбра|Coimbra|+0.0|PT|40.157223|-8.470000|
CBQ|DNCA|Калабар|Calabar|Калабар|Calabar|+1.0|NG|4.976019|8.347196|
CBR|YSCB|Канберра|Canberra|Канберра|Canberra|+11.0|AU|-35.306944|149.195000|http://www.canberraairport.com.au
CBS|SVON||Oro Negro|Кабимас|Cabimas|-4.0|VE|10.330069|-71.322528|
CBT|FNCT||Catumbela||Catumbela|+1.0|AO|-12.479167|13.486944|
CBU|EDCD|Коттбус|Cottbus|Коттбус|Cottbus|+1.0|DE|51.889475|14.531986|
CBV|MGCB|Кобан|Coban|Кобан|Coban|-6.0|GT|15.468958|-90.406742|
CBW|SSKM||Campo Mourao||Campo Mourao|-2.0|BR|-24.009222|-52.356781|
CBX|YCDO||Condobolin||Condobolin|-10.0|AU|-33.064444|147.209167|
CBY|YCBE||Canobie||Canobie|-10.0|AU|-19.478889|140.927222|
CBZ|SPIM||Cabin Creek||Cabin Creek|-9.0|US|55.383333333333|-132.41666666667|
CCA|KCCA||Chaffee AFB||Fort Chaffee|-5.0|HT|35.597769|-92.451617|
CCB|KCCB||Cable Airport||Upland, CA|-8.0|US|34.111611|-117.687389|http://www.cableairport.com/index.shtml
CCC|MUOC|Кайо Коко|Cayo Coco|Кайо Коко|Cayo Coco|-5.0|CU|22.513228|-78.510972|
CCD|||Century City|Лос Анджелес|Los Angeles|-8.0|US|34.060843|-118.417579|
CCE|TFFG||Grand Case||St Martin|+4.0|GP|18.100556|-63.048889|
CCF|LFMK||Salvaza|Каркассон|Carcassonne|+1.0|FR|43.215817|2.308544|
CCG|KCCG||Crane County Arpt||Crane|-6.0|US|31.415139|-102.362920|
CCH|SCCC|Чиле-Чико|Chile Chico|Чиле-Чико|Chile Chico|-3.0|CL|-46.583341|-71.687405|
CCI|SSCK||Concordia||Concordia|+3.0|BR|-27.180611|-52.052722|
CCJ|VOCL||Kozhikode Airport||Kozhikode|+5.5|IN|11.136839|75.955300|http://www.calicutairport.com
CCK|YPCC||Cocos Islands||Cocos Islands|+7.0|CC|-12.188333|96.833889|
CCL|YCCA|Шиншилла|Chinchilla|Шиншилла|Chinchilla|-10.0|AU|-26.775000|150.616667|
CCM|SBCM||Criciuma||Criciuma|+3.0|BR|-28.725817|-49.424739|
CCN|OACC|Чагчаран|Chakcharan|Чагчаран|Chakcharan|-4.5|AF|34.526669|65.271666|
CCO|SKCI|Каримагуа|Carimagua|Каримагуа|Carimagua|+5.0|CO|4.564167|-71.336389|
CCP|SCIE||Carriel Sur|Консепсьон|Concepcion|-3.0|CL|-36.772650|-73.063106|http://www.aeropuertocarrielsur.co.cl
CCQ|||Cachoeira||Cachoeira|-3.0|BR|-12.600|-38.967|
CCR|KCCR||Buchanan Fld||Concord|-5.0|US|37.989667|-122.056889|
CCS|SVMI||Simon Bolivar International Airport|Каракас|Caracas|-4.0|VE|10.603117|-66.990583|http://www.aeropuerto-maiquetia.com.ve
CCT||Колония-Катриэль|Colonia Catriel|Колония-Катриэль|Colonia Catriel|+3.0|AR|-37.910183|-67.834969|
CCU|VECC||Netaji Subhas Chandra||Kolkata|+5.5|IN|22.654739|88.446722|
CCV|NVSF|Крейг-Кав|Craig Cove|Крейг-Кав|Craig Cove|+11.0|VU|-16.265000|167.924444|
CCW|YCWL||Cowell||Cowell|-9.5|AU|-33.667222|136.891111|
CCX|SWKC|Касерес|Caceres|Касерес|Caceres|-3.0|BR|-16.043555|-57.629928|
CCY|KCCY||Municipal||Charles City|-6.0|US|43.072609|-92.610778|
CCZ|MYBC||Chub Cay||Chub Cay|-5.0|BS|25.417108|-77.880850|
CDA|YCOO|Куинда|Cooinda|Куинда|Cooinda|-9.5|AU|-12.903889|132.532778|
CDB|PACD||Cold Bay||Cold Bay|-9.0|US|55.205150|-162.724466|
CDC|KCDC|Сидар Сити|Cedar City|Сидар Сити|Cedar City|-7.0|US|37.700966|-113.098846|
CDD|||Cauquira||Cauquira|+0.0|HN|15.317|-83.583|
CDE||Каледония|Caledonia|Каледония|Caledonia|+5.0|PA|56.002113|-134.135338|
CDG|LFPG||Charles De Gaulle|Париж|Paris|+1.0|FR|49.009722|2.547778|
CDH|KCDH||Harrell Fld||Camden|-5.0|US|33.622806|-92.763389|
CDI|MMCD||Cachoeiro Itapemirim||Cachoeiro Itapemirim|+0.0|BR|28.037583|-115.189572|
CDJ|SBAA||Conceicao Do Araguaia||Conceicao Do Araguaia|-3.0|BR|-8.348347|-49.301528|
CDK|KCDK||Lewis||Cedar Key|-5.0|US|29.134222|-83.050472|
CDL|KCDL||Candle||Candle|-9.0|US|65.907658|-161.926306|
CDN|KCDN||Woodward Fld||Camden|-5.0|US|34.283583|-80.564861|
CDO|FACD|Крадок|Cradock|Крадок|Cradock|+2.0|ZA|-32.155555|25.645833|
CDP|VOCP|Куддапах|Cuddapah|Куддапах|Cuddapah|+5.5|IN|14.509961|78.772833|
CDQ|YCRY||Croydon||Croydon|-10.0|AU|-18.218|142.254|
CDR|KCDR||Chadron||Chadron|-7.0|US|42.837556|-103.095389|
CDS|KCDS|Чайлдресс|Childress|Чайлдресс|Childress|-6.0|US|34.433778|-100.288000|
CDU|YSCN||Camden||Camden|+11.0|AU|-34.040278|150.687222|
CDV|PACV||Mudhole Smith||Cordova|-9.0|US|60.491778|-145.477556|
CDW|KCDW||Caldwell Wright||Caldwell, NJ|-5.0|US|40.875223|-74.281357|
CDY|RPMU||Cagayan De Sulu||Cagayan De Sulu|-8.0|PH|7.014|118.496|
CDZ|RJCC|Кадиз|Cadiz|Кадиз|Cadiz|+1.0|ES|36.533611111111|-6.2994444444444|
CEA|KCEA||Cessna Aircraft Field|Вичита|Wichita|+0.0|US|37.648598|-97.250599|
CEB|RPVM||Mactan-Cebu International|Кебу|Cebu|+8.0|PH|10.307542|123.979439|http://www.mactan-cebuairport.com.ph/
CEC|KCEC||Mc Namara Fld||Crescent City|-8.0|US|41.780167|-124.236528|
CED|YCDU||Ceduna||Ceduna|-9.5|AU|-32.130556|133.709722|
CEE|ULBC|Череповец|Cherepovets|Череповец|Cherepovets|-2.0|RU|59.273611|38.015833|
CEF|KCEF||Westover Metro Arpt||Springfield|-5.0|US|42.194014|-72.534783|
CEG|EGNR|Честер|Chester|Честер|Chester|+0.0|GB|53.178056|-2.977778|
CEH|ZBCD||Chelinda||Chelinda|+2.0|MW|-10.583333333333|33.8|
CEI|VTCT|Чанг-Рай|Chiang Rai|Чанг-Рай|Chiang Rai|+7.0|TH|19.952342|99.882928|
CEJ|UKKL|Чернигов|Chernigov|Чернигов|Chernigov|+2.0|UA|51.500|31.300|
CEK|USCC|Челябинск|Chelyabinsk|Челябинск|Chelyabinsk|+5.0|RU|55.305836|61.503333|
CEL|MYEC|Кейп-Элутера|Cape Eleuthera|Кейп-Элутера|Cape Eleuthera|-5.0|BS|24.958333333333|-76.45|
CEM|PACE||Central||Central|-9.0|US|65.573944|-144.780889|
CEN|MMCN|Сиудад-Обрегон|Ciudad Obregon|Сиудад-Обрегон|Ciudad Obregon|-7.0|MX|27.392639|-109.833111|
CEO|FNWK|Вако-Кунго|Waco Kungo|Вако-Кунго|Waco Kungo|-1.0|AO|-11.426389|15.101389|
CEP|SLCP|Консепсион|Concepcion|Консепсьон|Concepcion|-4.0|BO|-16.143056|-62.026111|
CEQ|LFMD||Mandelieu|Канны|Cannes|+1.0|FR|43.546389|6.954167|
CER|LFRC||Maupertus|Шербург|Cherbourg|+1.0|FR|49.650833|-1.475278|
CES|YCNK||Cessnock||Cessnock|-10.0|AU|-32.787500|151.341667|http://www.hva.com.au
CET|LFOU||Le Pontreau|Шоле|Cholet|+1.0|FR|47.081906|-0.877217|
CEU|KCEU||Oconee County||Clemson|-5.0|US|34.671917|-82.886806|
CEV|KCEV||Mettle Field||Connersville|-5.0|US|39.698494|-85.129697|
CEW|KCEW||Bob Sikes||Crestview|-6.0|US|30.778833|-86.522111|
CEX|KCEX||Chena Hot Springs||Chena Hot Springs|-9.0|US|65.051826|-146.047432|
CEY|KCEY||Calloway County||Murray|-6.0|US|36.664583|-88.372778|
CEZ|KCEZ||Montezuma County|Кортез|Cortez|-7.0|US|37.303000|-108.628056|
CFA|EDAL||Coffee Point||Coffee Point|-9.0|US|58.230555555556|-157.5|
CFB|SBCB||Cabo Frio||Cabo Frio|-2.0|BR|-22.921681|-42.074269|
CFC|SPIM||Cacador||Cacador|+0.0|BR|-26.783333333333|-51|
CFD|KCFD||Coulter Field||Bryan|-5.0|JM|30.715694|-96.331361|
CFE|LFLC||Aulnat|Клермон-Ферран|Clermont-Ferrand|+1.0|FR|45.785833|3.162500|
CFF|FNCF||Cafunfo||Cafunfo|-1.0|AO|-8.783611|17.989722|
CFG|MUCF|Сьенфуэгос|Cienfuegos|Сиенфуэгос|Cienfuegos|-5.0|CU|22.150000|-80.414167|
CFH|YCFH||Clifton Hills||Clifton Hills|-9.5|AU|-27.015000|138.892222|
CFI|||Camfield||Camfield|-9.5|AU|-17.019722|131.329722|
CFK|PACK||Chefornak||Chefornak, AK|-9.0|US|60.149226|-164.285632|
CFN|EIDL|Донегаль|Donegal||Carrickfinn|+0.0|IE|55.044192|-8.341000|http://www.donegalairport.ie
CFO||Конфреца|Confreza|Конфреца|Confreza|+4.0|BR|-10.634444|-51.563611|
CFP|YCPN||Carpentaria Downs||Carpentaria Downs|-10.0|AU|-18.717778|144.312500|
CFQ|SBCH||Creston Valley Airport||Creston|-8.0|CA|49.036944444444|-116.49833333333|
CFR|LFRK||Carpiquet|Кан|Caen|+1.0|FR|49.173281|-0.449875|
CFS|YSCH|Коффс Харбор|Coffs Harbour|Коффс Харбор|Coffs Harbour|+10.0|AU|-30.320556|153.116389|
CFT|KCFT||Morenci||Clifton|-7.0|US|32.957039|-109.211162|
CFU|LGKR||Ioannis Kapodistrias||Kerkyra|+2.0|GR|39.601944|19.911667|http://www.hcaa-eleng.gr/kerk.htm
CFV|KCFV||Municipal||Coffeyville|-6.0|US|37.094048|-95.571894|
CGA|KCGA||Craig SPB||Craig|-7.0|US|55.478831|-133.147800|
CGB|SBCY||Intl. Airpt. Marechal Rondon|Куиаба|Cuiaba|-3.0|BR|-15.652931|-56.116719|
CGC||Кейп-Глусестер|Cape Gloucester|Кейп-Глусестер|Cape Gloucester|-10.0|PG|-5.450|148.417|
CGD|ZGCD|Чандэ|Changde|Чандэ|Changde|+8.0|CN|28.918889|111.640278|
CGE|KCGE|Кембридж|Cambridge|Кембрдидж|Cambridge|-5.0|US|38.539333|-76.030389|
CGF|KCGF||Cuyahoga County||Cleveland|-5.0|US|41.565111|-81.486361|
CGG||Касигуран|Casiguran|Касигуран|Casiguran|+0.0|PH|0|0|
CGH|SBSP||Congonhas|Сао Паоло|Sao Paulo|+0.0|BR|-23.626692|-46.655375|
CGI|KCGI||Cape Girardeau||Cape Girardeau|-6.0|US|37.225317|-89.570752|
CGJ||Чингола|Chingola|Чингола|Chingola|+2.0|ZM|-12.547|27.855|
CGM|RPMH||Mambajao|Камигуин|Camiguin|-8.0|PH|9.253525|124.707075|
CGN|EDDK||Cologne/bonn|Кельн|Cologne|+1.0|DE|50.866|7.143|http://www.koeln-bonn-airport.de/index.php
CGO|ZHCC|Женьчжоу|Zhengzhou|Чженчжоу|Zhengzhou|+8.0|CN|34.519672|113.840889|
CGP|VGEG||Patenga||Chittagong|+6.0|BD|22.249611|91.813286|
CGQ|ZYCC|Чангчун|Changchun|Чаньчунь|Changchun|+8.0|CN|43.996214|125.685356|
CGR|SBCG||Intl. Airport Campo Grande|Кампо Гранде|Campo Grande|-3.0|BR|-20.468667|-54.672500|
CGS|KCGS|Колледж парк|College Park|Колледж парк|College Park|-5.0|US|38.980583|-76.922306|http://www.pgparks.com/places/historic/cpairport.html
CGT||Шингитти|Chinguitti|Шингитти|Chinguitti|+0.0|MR|20.483|-12.383|
CGU|SVPR|Сьюдад-Гуаяна|Ciudad Guayana|Сьюдад-Гуаяна|Ciudad Guayana|-4.0|VE|8.300|-62.733|
CGV|YCAG||Caiguna||Caiguna|-8.0|AU|-32.280555|125.477222|
CGX|||Merrill C Meigs (closed)|Чикаго|Chicago|-6.0|US|41.858888888889|-87.608333333333|
CGY|RPML||Cagayan De Oro Domestic Airport|Кагаян Де Оро|Cagayan De Oro|+8.0|PH|8.415619|124.611219|
CGZ|KCGZ||Municipal||Casa Grande|-7.0|US|32.954889|-111.766833|
CHA|KCHA||Lovell Field||Chattanooga,TN|-5.0|US|35.035194|-85.203556|http://www.chattairport.com
CHB|OPCL|Чилас|Chilas|Чилас|Chilas|+5.0|PK|35.426666|74.081665|
CHC|NZCH||Christchurch International|Кристчерч|Christchurch|+13.0|NZ|-43.489444|172.534444|http://www.christchurch-airport.co.nz
CHD|KCHD||Williams Gateway Airport|Меса|Mesa|-7.0|US|33.307777777778|-111.65555555556|http://www.flywga.org
CHE|||Reenroe||Caherciveen|+0.0|IE|51.950|-10.217|
CHF|RKPE||Jinhae||Jinhae|+9.0|KR|35.141175|128.695792|
CHG|ZYCY||Chaoyang Airport|Чаоян|Chaoyang|-8.0|CN|41.538056|120.435000|
CHH|SPPY|Чачапояс|Chachapoyas|Чачапояс|Chachapoyas|-5.0|PE|-6.201806|-77.856064|
CHI|KCHI||Chicago FSS|Чикаго|Chicago|-6.0|US|41.883|-87.631|http://www.flychicago.com
CHJ|FVCH||Chipinge||Chipinge|+2.0|ZW|-20.206667|32.628332|
CHK|KCHK||Municipal||Chickasha|-6.0|US|35.097361|-97.967694|
CHL|KLLJ||Challis||Challis|-7.0|US|44.523583|-114.217917|
CHM|SPEO|Чимботе|Chimbote|Чимботе|Chimbote|-5.0|PE|-9.149614|-78.523850|
CHN|RKJU|Джеонжу|Jeonju|Джеонжу|Jeonju|+9.0|KR|35.878436|127.119550|
CHO|KCHO||Albemarle|Шарлоттсвилль|Charlottesville|-5.0|US|38.138639|-78.452861|
CHP|KCHP||Circle Hot Springs||Circle Hot Springs|-9.0|US|65.485472|-144.610784|
CHQ|LGSA||Souda||Chania|+2.0|GR|35.531747|24.149678|http://www.hcaa-eleng.gr/hania.htm
CHR|LFLX|Шаторуа|Chateauroux|Шаторуа|Chateauroux|+1.0|FR|46.860278|1.721111|http://www.chateauroux-airport.com
CHS|KCHS||Charleston,  AFB Municipal||Charleston, SC|-5.0|US|32.898639|-80.040528|
CHT|NZCI||Karewa|Чатам-Айленд|Chatham Island|-12.0|NZ|-43.809999|-176.457222|
CHU|PACH||Chuathbaluk||Chuathbaluk|-9.0|US|61.579056|-159.215639|
CHV|LPCH|Чавес|Chaves|Чавес|Chaves|+0.0|PT|41.725834|-7.465556|
CHW|ZLJQ||Jiuhuang||Jiuquan|+8.0|CN|39.856944|98.341389|
CHX|MPCH|Чангвинола|Changuinola|Чангвинола|Changuinola|-5.0|PA|9.458636|-82.516806|
CHY|AGGC|Чойсфул-Бей|Choiseul Bay|Чойсфул-Бей|Choiseul Bay|-11.0|SB|-6.711944|156.396111|
CHZ|KCHZ||State||Chiloquin|-8.0|US|42.583192|-121.876126|
CIA|LIRA|Кьямпино|Ciampino|Рим|Rome|+1.0|IT|41.799361|12.594936|http://www.adr.it/
CIB|KAVX||Ap In The Sky||Catalina Island|-8.0|US|33.404997|-118.415769|
CIC|KCIC||Chico||Chico|-8.0|US|39.795389|-121.858417|
CID|KCID||Cedar Rapids||Cedar Rapids|-6.0|US|41.885085|-91.712288|http://www.easterniowaairport
CIE|YCOI||Collie||Collie|-8.0|AU|-33.359721|116.201667|
CIF|ZBCF|Чифен|Chifeng|Чифен|Chifeng|+8.0|CN|42.235000|118.908333|
CIG|KCAG||Craig-Moffat||Craig|-7.0|US|40.495221|-107.521647|
CIH|ZBCZ|Чанжи|Changzhi|Чанжи|Changzhi|-8.0|CN|36.247500|113.125833|
CIJ|SLCO||E. Beltram|Кобиха|Cobija|-4.0|BR|-11.040436|-68.782972|
CIK|PACI||Chalkyitsik||Chalkyitsik|-9.0|US|66.645022|-143.739930|
CIL|KCIL||Melsing Creek||Council|-9.0|US|64.897882|-163.703447|
CIM|SKCM|Кимитарра|Cimitarra|Кимитарра|Cimitarra|-5.0|CO|6.367|-73.967|
CIN|KCIN||Carroll||Carroll|-6.0|US|42.046194|-94.789000|
CIO|SBGR||MCAL Lopez|Консепсьон|Concepcion|-5.0|CO|4.0666666666667|-73.733333333333|
CIP|FLCP|Чипата|Chipata|Чипата|Chipata|+2.0|ZM|-13.560278|32.587778|
CIQ||Чикумула|Chiquimula|Чикумула|Chiquimula|-6.0|GT|14.817|-89.517|
CIR|KCIR|Каир|Cairo|Каир|Cairo|-6.0|US|37.064472|-89.219611|
CIS|PCIS|Кентон-Айленд|Canton Island|Кентон-Айленд|Canton Island|+11.0|KI|-2.768122|-171.710394|
CIT|UAII|Шимкент|Shimkent|Шимкент|Shimkent|+6.0|KZ|42.364167|69.478889|
CIU|KCIU||Chippewa County|Со Сен Мари|Sault Ste Marie|+5.0|US|46.250750|-84.472389|
CIV|SNIO||Chomley||Chomley|-9.0|US|55.216666666667|-132.21666666667|
CIW|TVSC||Canouan Island||Canouan Island|-4.0|VC|12.699167|-61.342500|
CIX|SPHI||Cornel Ruiz|Чиклайо|Chiclayo|-5.0|PE|-6.787475|-79.828097|
CIY|LICB|Комизо|Comiso|Комизо|Comiso|+1.0|IT|36.995278|14.608056|
CIZ|SWKO||Coari||Coari|+4.0|BR|-4.134056|-63.132556|
CJA|SPJR|Кахамарка|Cajamarca|Кахамарка|Cajamarca|-5.0|PE|-7.139183|-78.489400|
CJB|VOCB||Peelamedu|Коимбаторе|Coimbatore|+5.5|IN|11.030031|77.043383|
CJC|SCCF||El Loa|Калама|Calama|+4.0|CL|-22.498175|-68.903575|
CJD||Кандилежас|Candilejas|Кандилежас|Candilejas|+5.0|CO|1.333|-74.267|
CJH|||Chilko Lake||Chilko Lake|+0.0|GB|51.626106|-124.141945|
CJI|VHHH||Ciudad Real - Don Quijote Airport|Сиудад Реаль|Ciudad Real|+0.0|ES|24.033333333333|-54.1|http://donquijoteairport.com/
CJJ|RKTU||Cheongju||Cheongju|+9.0|KR|36.716600|127.499119|http://cheongju.airport.co.kr/eng/index.jsp
CJL|OPCH|Читрал|Chitral|Читрал|Chitral|-5.0|PK|35.886592|71.800578|
CJM|VTSE||Chumphon Airport|Чампхон|Chumphon|+5.0|TH|10.711200|99.361706|
CJN|KCJN||Gillespie Field||San Diego/El Cajon, CA|-8.0|US|32.826111111111|-116.9725|
CJS|MMCS||Intl Abraham Gonzalez|Сиудад Хуарез|Ciudad Juarez|-7.0|MX|31.636133|-106.428667|
CJT|MMCO||Copalar||Comitan|+0.0|MX|16.176592|-92.050356|
CJU|RKPC||Jeju Airport||Jeju|+9.0|KR|33.511305|126.493028|
CKA|KCKA||Kegelman Af|Чероки|Cherokee||BS|36.750000|-98.116667|
CKB|KCKB||Benedum||Clarksburg|-5.0|US|39.296639|-80.228083|
CKC|UKKE|Черкассы|Cherkassy|Черкассы|Cherkassy|+2.0|UA|49.415569|31.995292|
CKD|||Crooked Creek||Crooked Creek|-9.0|US|61.867861|-158.134917|
CKE|KCKE||Clear Lake||Clear Lake|-8.0|US|39.002952|-122.796935|
CKG|ZUCK||Chongqing Jiangbei International|Чонсинь|Chongqing|+8.0|CN|29.719217|106.641678|
CKH|UESO|Чокурдах|Chokurdah|Чокурдах|Chokurdah|-2.0|RU|70.623056|147.901667|
CKI|YCKI||Croker Island||Croker Island|-9.5|AU|-11.163611|132.483056|
CKK|VHHH|Чероки|Cherokee|Чероки|Cherokee|-6.0|US|36.283333333333|-91.5|
CKL|HRYR|Чкаловский|Chkalovsky|Чкаловский|Chkalovsky|+5.0|RU|51.75|55.383333333333|
CKM|KCKM||Fletcher Field||Clarksdale|-6.0|US|34.299722|-90.512306|
CKN|KCKN||Municipal||Crookston|-6.0|US|47.841657|-96.621454|
CKO|SSCP||Cornelio Procopio||Cornelio Procopio|-2.0|BR|-23.152508|-50.602511|
CKR|RJFR||Crane Island||Crane Island|-8.0|US|48.6|-123|
CKS|SBCJ||Carajas||Carajas|+3.0|BR|-6.117806|-50.003472|
CKT|OIMC||Sarakhs||Sarakhs|+3.5|IR|36.501178|61.064903|
CKU|KCKU||City||Cordova|-9.0|US|60.543903|-145.726704|
CKV|KCKV||Outlaw Field|Кларксвилл|Clarksville|-6.0|US|36.621881|-87.414954|
CKX|KCKX||Chicken||Chicken|-9.0|US|64.071338|-141.952279|
CKY|GUCY||Conakry||Conakry|+0.0|GN|9.576889|-13.611961|
CKZ|LTBH|Канаккале|Canakkale|Канаккале|Canakkale|+2.0|TR|40.137722|26.426777|
CLA|VGCM|Комилла|Comilla|Комилла|Comilla|+5.5|BD|23.433|91.183|
CLB|EICB|Кестлбар|Castlebar|Кастлбар|Castlebar|+0.0|IE|53.848465|-9.280306|
CLC|LFAC||Metroport||Clearlake|-6.0|US|29.5575|-95.139166666667|
CLD|KCRQ||Mc Clellan-Palomar Airport||Carlsbad, CA|-8.0|US|33.128250|-117.280083|http://www.co.san-diego.ca.us/dpw/airports/mcpal.htm
CLE|KCLE||Hopkins International||Cleveland|-5.0|US|41.409417|-81.854980|http://www.clevelandairport.com/
CLG|KCLG||Coalinga||Coalinga|-8.0|US|36.163139|-120.293814|
CLH|YCAH||Coolah||Coolah|-10.0|AU|-31.773333|149.610001|
CLI|KCLI||Clintonville||Clintonville|-6.0|US|44.613279|-88.730698|
CLJ|LRCL||Cluj Napoca International Airport|Клуж-Напока|Cluj-Napoca|+2.0|RO|46.785092|23.686119|http://www.airportcluj.ro
CLK|KCLK||Municipal||Clinton|-6.0|US|35.538272|-98.932789|
CLL|KCLL||Easterwood Field||College Station, TX|-6.0|US|30.588583|-96.363833|http://www.easterwoodairport.com
CLM|KCLM||Fairchild Intl|Порт Анжелес|Port Angeles|+8.0|US|48.120194|-123.499694|
CLN|SBCI||Carolina||Carolina|-3.0|BR|-7.320444|-47.458667|
CLO|SKCL||Alfonso B. Aragon|Кали|Cali|-5.0|CO|3.543056|-76.381667|
CLP|PFCL||Clarks Point||Clarks Point|-9.0|US|58.833694|-158.529389|
CLQ|MMIA|Колима|Colima|Колима|Colima|-6.0|MX|19.277011|-103.577397|
CLR|KCLR||Calipatria||Calipatria|-8.0|US|33.131332|-115.521389|
CLS|KCLS||Centralia||Chehalis|-8.0|US|46.677029|-122.982747|
CLT|KCLT||Charlotte Douglas|Шарлотт|Charlotte|-5.0|US|35.213741|-80.949069|http://www.charmeck.org/Departments/Airport/Home.htm
CLU|KBAK||Columbus Municipal||Columbus|-5.0|US|39.261917|-85.896333|
CLV|SBCN||Caldas Novas||Caldas Novas|+3.0|BR|-17.725250|-48.607492|
CLW|KCLW||Executive|Клируотер|Clearwater|-6.0|CA|27.976686|-82.758740|
CLX|SATC|Клоринда|Clorinda|Клоринда|Clorinda|-3.0|PY|-25.303889|-57.733889|
CLY|LFKC||Ste Catherine|Кальви|Calvi|+1.0|FR|42.520364|8.793028|
